timestamp,elapsed_time,px,py,pz,vx,vy,vz,ax,ay,az,roll,pitch,yaw,obstacle_detected,obstacle_distance
1768568117.8304098,0.1094,0.0,0.0,-0.8284,0.0,0.0,-0.0095,0.0,0.0,-0.0205,0.0,0.0,0.0,0,7.918
1768568117.9296892,0.2087,0.0012,-0.0,-0.8271,0.0459,-0.0,-0.0151,1.0811,-0.0,-1.4267,0.0,-0.0987,-0.0,0,7.6602
1768568118.0246549,0.3037,0.0113,-0.0,-0.8349,0.1811,-0.0,-0.1459,1.6869,-0.0,-1.0979,0.0,-0.1546,-0.0,1,4.9531
1768568118.1242676,0.4033,0.0383,-0.0,-0.8506,0.3259,-0.0,-0.0331,0.7374,0.0,4.0525,0.0,-0.1229,-0.0,1,4.3633
1768568118.2301729,0.5092,0.0764,0.0,-0.8426,0.3931,0.0,0.1174,0.3926,0.0,0.0171,0.0,-0.0384,-0.0,0,5.4648
1768568118.338565,0.6176,0.12,0.0,-0.8313,0.4058,0.0,0.0855,-0.1139,0.0,-0.4048,0.0,0.0121,-0.0,0,7.3711
1768568118.4386258,0.7176,0.1591,0.0,-0.8247,0.3803,0.0,0.0496,-0.3762,0.0,-0.3019,0.0,0.0377,-0.0,0,8.8516
1768568118.536935,0.8159,0.1947,0.0,-0.8211,0.3353,0.0,0.026,-0.5174,0.0,-0.1804,0.0,0.052,-0.0,0,9.9922
1768568118.6406565,0.9197,0.2269,0.0,-0.8191,0.2766,0.0,0.012,-0.5903,0.0,-0.0939,0.0,0.0596,-0.0,0,10.7891
1768568118.7422383,1.0212,0.252,0.0,-0.8183,0.2148,0.0,0.0051,-0.6155,0.0,-0.0459,0.0,0.0624,-0.0,0,11.2031
1768568118.8428802,1.1219,0.2702,0.0,-0.818,0.1539,0.0,0.0019,-0.6124,0.0,-0.0216,0.0,0.0622,-0.0,0,11.3203
1768568118.9431245,1.2221,0.2825,0.0,-0.8179,0.0942,0.0,0.0004,-0.5907,0.0,-0.0106,0.0,0.06,-0.0,0,11.25
1768568119.0422778,1.3213,0.2891,0.0,-0.8179,0.0357,0.0,-0.0005,-0.5547,0.0,-0.0073,0.0,0.0563,-0.0,0,11.0469
1768568119.143305,1.4223,0.2916,0.0,-0.812,0.0388,0.0,0.0579,0.7121,0.0,-1.4557,0.0,-0.0666,-0.0,0,9.5781
1768568119.248011,1.527,0.3018,0.0,-0.8153,0.1707,0.0,-0.1156,1.6017,-0.0,-1.3364,-0.0,-0.1441,-0.0,0,5.2656
1768568119.3445807,1.6236,0.326,0.0,-0.831,0.335,0.0,-0.1987,1.7699,-0.0,-0.4468,-0.0,-0.1714,-0.0,1,4.4375
1768568119.444709,1.7237,0.3686,0.0,-0.8489,0.4778,0.0,-0.0299,0.6674,-0.0,4.3957,-0.0,-0.1184,-0.0,1,4.2266
1768568119.543909,1.8229,0.4191,0.0,-0.8406,0.5351,0.0,0.1262,0.3201,-0.0,-0.0241,-0.0,-0.0307,-0.0,0,5.4805
1768568119.646422,1.9254,0.4743,0.0,-0.8294,0.5371,0.0,0.0869,-0.2365,-0.0,-0.505,-0.0,0.0239,-0.0,0,7.5469
1768568119.7468338,2.0258,0.5257,0.0,-0.823,0.497,-0.0,0.0434,-0.5424,-0.0,-0.3513,-0.0,0.0539,-0.0,0,9.5391
1768568119.851575,2.1306,0.5746,0.0,-0.8201,0.4303,-0.0,0.0163,-0.7093,-0.0,-0.1744,-0.0,0.0712,-0.0,0,11.1094
1768568119.9448445,2.2238,0.6114,0.0,-0.8191,0.3606,-0.0,0.0052,-0.7797,-0.0,-0.0745,-0.0,0.0788,-0.0,0,12.2734
1768568120.0537295,2.3327,0.6465,0.0,-0.8189,0.2721,-0.0,0.0008,-0.807,-0.0,-0.0119,-0.0,0.082,0.0,0,12.9062
1768568120.1455796,2.4246,0.6677,0.0,-0.8188,0.1996,-0.0,0.0009,-0.7995,-0.0,0.0097,-0.0,0.0813,0.0,0,13.0859
1768568120.248092,2.5271,0.684,0.0,-0.8187,0.1195,-0.0,0.0023,-0.7688,-0.0,0.016,-0.0,0.0782,0.0,0,12.9375
1768568120.3486373,2.6276,0.6923,0.0,-0.8183,0.0434,-0.0,0.0038,-0.7209,-0.0,0.0117,-0.0,0.0733,0.0,0,12.5625
1768568120.4470408,2.726,0.6949,-0.0,-0.8113,0.0344,-0.0,0.0781,0.6004,-0.0,-1.4248,-0.0,-0.0571,0.0,0,10.9844
1768568120.5500913,2.8291,0.7038,-0.0,-0.8125,0.1543,-0.0,-0.0986,1.5544,-0.0,-1.4701,-0.0,-0.1385,0.0,0,5.4023
1768568120.6555676,2.9346,0.7291,-0.0,-0.829,0.3323,-0.0,-0.1974,1.7671,-0.0,-0.4675,-0.0,-0.1709,0.0,1,4.4453
1768568120.749235,3.0282,0.769,-0.0,-0.848,0.4833,-0.0,-0.1163,0.7788,0.0,4.8585,-0.0,-0.1507,0.0,1,4.2305
1768568120.8498263,3.1288,0.8201,-0.0,-0.8433,0.5458,-0.0,0.1249,0.4184,0.0,0.2838,0.0,-0.0419,0.0,0,5.2695
1768568120.9472566,3.2263,0.8735,-0.0,-0.832,0.5575,-0.0,0.0986,-0.148,0.0,-0.5159,0.0,0.0155,0.0,0,7.1562
1768568121.0482101,3.3272,0.9289,-0.0,-0.8245,0.5217,-0.0,0.0498,-0.5148,0.0,-0.3967,0.0,0.051,0.0,0,9.25
1768568121.1500587,3.4291,0.9791,-0.0,-0.8212,0.4585,-0.0,0.0193,-0.7044,0.0,-0.2076,0.0,0.0705,0.0,0,11.0547
1768568121.2503328,3.5293,1.022,-0.0,-0.82,0.3814,-0.0,0.0051,-0.7952,0.0,-0.0828,0.0,0.0803,0.0,0,12.3594
1768568121.3559217,3.6349,1.0575,-0.0,-0.8198,0.2957,-0.0,0.0004,-0.8282,0.0,-0.015,0.0,0.0841,0.0,0,13.0859
1768568121.4594204,3.7384,1.0834,-0.0,-0.8198,0.2112,0.0,0.0006,-0.8231,0.0,0.0132,0.0,0.0838,0.0,0,13.3359
1768568121.551372,3.8304,1.0995,-0.0,-0.8196,0.1358,0.0,0.0022,-0.7963,-0.0,0.0198,0.0,0.0811,0.0,0,13.2188
1768568121.6550994,3.9341,1.1093,-0.0,-0.8193,0.0568,0.0,0.0041,-0.7496,-0.0,0.0158,-0.0,0.0762,0.0,0,12.8516
1768568121.7619245,4.0409,1.1134,-0.0,-0.8117,0.0472,-0.0,0.0731,0.6668,-0.0,-1.5181,-0.0,-0.0626,0.0,0,11.1953
1768568121.8585463,4.1375,1.1228,-0.0,-0.8128,0.1612,-0.0,-0.0944,1.5379,0.0,-1.4756,-0.0,-0.137,0.0,0,5.3906
1768568121.9626827,4.2417,1.1488,-0.0,-0.8289,0.3378,0.0,-0.194,1.7566,0.0,-0.4759,0.0,-0.1697,0.0,1,4.4766
1768568122.0610857,4.3401,1.1906,-0.0,-0.848,0.4903,0.0,-0.0989,0.7423,0.0,4.8783,0.0,-0.1439,0.0,1,4.2383
1768568122.161044,4.44,1.2424,-0.0,-0.8424,0.5514,0.0,0.1256,0.3935,0.0,0.2036,0.0,-0.039,0.0,0,5.2852
1768568122.256633,4.5356,1.2962,-0.0,-0.8312,0.5607,0.0,0.0962,-0.1694,-0.0,-0.5209,-0.0,0.0176,0.0,0,7.2383
1768568122.35593,4.6349,1.3502,-0.0,-0.8242,0.5247,0.0,0.0489,-0.5212,-0.0,-0.3959,-0.0,0.0516,0.0,0,9.2812
1768568122.4595954,4.7386,1.402,-0.0,-0.8208,0.4587,0.0,0.018,-0.7141,-0.0,-0.2011,-0.0,0.0715,0.0,0,11.1016
1768568122.5582776,4.8373,1.4426,-0.0,-0.8198,0.3856,0.0,0.0048,-0.799,-0.0,-0.0836,-0.0,0.0807,0.0,0,12.3828
1768568122.6609833,4.94,1.4786,-0.0,-0.8196,0.2995,-0.0,0.0001,-0.833,-0.0,-0.0144,-0.0,0.0846,0.0,0,13.1562
1768568122.7628922,5.0419,1.5048,-0.0,-0.8196,0.2145,-0.0,0.0004,-0.8284,-0.0,0.0143,-0.0,0.0843,0.0,0,13.3906
1768568122.8606203,5.1396,1.5216,-0.0,-0.8195,0.1361,-0.0,0.0022,-0.8008,-0.0,0.021,-0.0,0.0815,0.0,0,13.2656
1768568122.962605,5.2416,1.5314,-0.0,-0.8192,0.0567,-0.0,0.0042,-0.7536,-0.0,0.0166,-0.0,0.0767,0.0,0,12.8906
1768568123.0637486,5.3428,1.5354,-0.0,-0.8117,0.0469,-0.0,0.0784,0.6158,-0.0,-1.4559,-0.0,-0.0584,0.0,0,10.3047
1768568123.1644585,5.4435,1.5451,-0.0,-0.8126,0.1624,-0.0,-0.0935,1.5347,-0.0,-1.477,-0.0,-0.1367,0.0,0,5.3984
1768568123.2604594,5.5395,1.5692,-0.0,-0.8275,0.3282,-0.0,-0.1903,1.7515,0.0,-0.524,-0.0,-0.1685,0.0,1,4.4922
1768568123.363151,5.6422,1.6111,-0.0,-0.8447,0.47,-0.0,-0.0264,0.6726,0.0,4.3021,-0.0,-0.1173,0.0,1,4.2422
1768568123.4633648,5.7424,1.6608,-0.0,-0.8364,0.5273,-0.0,0.1252,0.3194,0.0,-0.0303,0.0,-0.0306,0.0,0,5.5273
1768568123.562397,5.8414,1.7136,-0.0,-0.8255,0.5302,-0.0,0.0877,-0.2185,0.0,-0.4986,0.0,0.0222,0.0,0,7.5234
1768568123.6707492,5.9498,1.7688,-0.0,-0.8187,0.487,-0.0,0.0413,-0.5463,0.0,-0.3354,0.0,0.0543,0.0,0,9.4219
1768568123.763954,6.043,1.8115,-0.0,-0.8161,0.4287,-0.0,0.0177,-0.6922,0.0,-0.1815,0.0,0.0694,0.0,0,11.0547
1768568123.866888,6.1459,1.8525,-0.0,-0.815,0.3512,-0.0,0.005,-0.7713,0.0,-0.0706,0.0,0.078,0.0,0,12.2031
1768568123.9659314,6.2449,1.8835,-0.0,-0.8148,0.2733,-0.0,0.001,-0.7955,-0.0,-0.0158,0.0,0.0808,0.0,0,12.7656
1768568124.0665097,6.3455,1.9066,-0.0,-0.8147,0.1947,-0.0,0.0009,-0.7879,-0.0,0.0084,-0.0,0.0802,0.0,0,12.9375
1768568124.174311,6.4533,1.9231,-0.0,-0.8145,0.1112,-0.0,0.0022,-0.7547,-0.0,0.0145,-0.0,0.0768,0.0,0,12.7812
1768568124.2682238,6.5472,1.9303,-0.0,-0.8143,0.043,-0.0,0.0034,-0.7111,-0.0,0.0107,-0.0,0.0723,0.0,0,12.4297
1768568124.3735015,6.6525,1.933,-0.0,-0.8071,0.0347,-0.0,0.0722,0.6543,-0.0,-1.4854,-0.0,-0.0616,0.0,0,10.4531
1768568124.4668727,6.7459,1.9411,-0.0,-0.8083,0.1487,-0.0,-0.0955,1.5456,-0.0,-1.4949,-0.0,-0.1375,0.0,0,5.4258
1768568124.5713012,6.8503,1.9649,-0.0,-0.824,0.321,-0.0,-0.1953,1.7666,0.0,-0.5097,-0.0,-0.1702,0.0,1,4.457
1768568124.6694162,6.9484,2.0045,-0.0,-0.8405,0.4553,-0.0,-0.0169,0.68,0.0,4.0912,-0.0,-0.1147,0.0,1,4.2188
1768568124.7766573,7.0557,2.0574,-0.0,-0.8308,0.5152,-0.0,0.124,0.2603,0.0,-0.1536,0.0,-0.0243,0.0,0,5.5859
1768568124.8672657,7.1463,2.1041,-0.0,-0.8211,0.5158,-0.0,0.0877,-0.2104,0.0,-0.4882,0.0,0.0214,0.0,0,7.5039
1768568124.9707055,7.2497,2.155,-0.0,-0.8145,0.477,-0.0,0.0443,-0.5185,0.0,-0.3405,0.0,0.0516,0.0,0,9.3984
1768568125.0699775,7.349,2.2006,-0.0,-0.8114,0.415,-0.0,0.0183,-0.6773,0.0,-0.177,0.0,0.068,0.0,0,10.9453
1768568125.1736813,7.4527,2.2393,-0.0,-0.8103,0.3416,-0.0,0.0061,-0.7518,0.0,-0.0735,0.0,0.076,0.0,0,12.0
1768568125.2746465,7.5536,2.2702,-0.0,-0.8099,0.2634,-0.0,0.0017,-0.7757,-0.0,-0.0188,0.0,0.0788,0.0,0,12.5312
1768568125.3728309,7.6518,2.2919,-0.0,-0.8098,0.1891,-0.0,0.0012,-0.7682,0.0,0.0042,0.0,0.0781,0.0,0,12.6953
1768568125.4795222,7.7585,2.3079,-0.0,-0.8096,0.1077,-0.0,0.0021,-0.7357,0.0,0.011,0.0,0.0748,0.0,0,12.5547
1768568125.5771081,7.8561,2.315,-0.0,-0.8094,0.037,-0.0,0.0031,-0.6899,0.0,0.0077,0.0,0.0701,0.0,0,12.1875
1768568125.6764655,7.9555,2.3172,-0.0,-0.8026,0.0304,0.0,0.074,0.6245,0.0,-1.4391,0.0,-0.0592,0.0,0,10.2969
1768568125.7790282,8.058,2.3257,-0.0,-0.8041,0.1521,0.0,-0.1021,1.5665,0.0,-1.4563,0.0,-0.1397,0.0,0,5.3398
1768568125.8786619,8.1577,2.3489,-0.0,-0.8197,0.3203,0.0,-0.1966,1.7702,0.0,-0.5025,-0.0,-0.1706,0.0,1,4.4219
1768568125.9795222,8.2585,2.39,-0.0,-0.837,0.46,0.0,-0.0178,0.6773,-0.0,4.1259,-0.0,-0.1149,0.0,1,4.2031
1768568126.0822113,8.3612,2.4403,-0.0,-0.828,0.5181,0.0,0.1251,0.2964,-0.0,-0.0856,-0.0,-0.0281,0.0,0,5.5234
1768568126.1793303,8.4583,2.4905,-0.0,-0.8175,0.5201,0.0,0.0878,-0.2148,-0.0,-0.4919,-0.0,0.0219,0.0,0,7.4961
1768568126.2841501,8.5632,2.5432,-0.0,-0.8107,0.4792,-0.0,0.0431,-0.5306,-0.0,-0.3367,-0.0,0.0528,0.0,0,9.4062
1768568126.3785224,8.6575,2.5865,-0.0,-0.8079,0.4203,-0.0,0.0186,-0.6804,-0.0,-0.181,-0.0,0.0683,0.0,0,10.9297
1768568126.4770565,8.7561,2.6247,-0.0,-0.8068,0.3487,-0.0,0.0063,-0.7555,-0.0,-0.0772,-0.0,0.0764,0.0,0,11.9844
1768568126.5802796,8.8593,2.6562,-0.0,-0.8064,0.2699,-0.0,0.0017,-0.7818,-0.0,-0.0198,-0.0,0.0794,0.0,0,12.5703
1768568126.679738,8.9587,2.6791,-0.0,-0.8063,0.1927,-0.0,0.0011,-0.775,-0.0,0.0049,-0.0,0.0788,0.0,0,12.7344
1768568126.7787578,9.0578,2.6944,-0.0,-0.8061,0.1172,-0.0,0.0021,-0.7462,-0.0,0.0118,-0.0,0.0759,0.0,0,12.6016
1768568126.8815675,9.1606,2.7026,-0.0,-0.8059,0.0433,-0.0,0.0032,-0.7001,-0.0,0.0089,-0.0,0.0712,0.0,0,12.2578
1768568126.9802148,9.2592,2.7052,-0.0,-0.7992,0.0321,-0.0,0.0795,0.5727,0.0,-1.3764,-0.0,-0.0548,0.0,0,10.75
1768568127.085239,9.3642,2.7141,-0.0,-0.8004,0.1549,-0.0,-0.1006,1.5605,0.0,-1.4573,-0.0,-0.1391,0.0,0,5.3398
1768568127.1835666,9.4626,2.7376,-0.0,-0.8158,0.3226,-0.0,-0.1953,1.7661,0.0,-0.505,-0.0,-0.1702,0.0,1,4.4336
1768568127.283072,9.5621,2.7775,-0.0,-0.8329,0.46,-0.0,-0.0296,0.6737,0.0,4.3478,0.0,-0.1185,0.0,1,4.1953
1768568127.380945,9.6599,2.8262,-0.0,-0.8247,0.5181,-0.0,0.1253,0.331,0.0,-0.0116,0.0,-0.0319,0.0,0,5.4648
1768568127.4857295,9.7647,2.8813,-0.0,-0.8132,0.521,-0.0,0.086,-0.2299,0.0,-0.4915,0.0,0.0233,0.0,0,7.4297
1768568127.5851576,9.8642,2.9312,-0.0,-0.8069,0.482,-0.0,0.0437,-0.5269,0.0,-0.3418,0.0,0.0524,0.0,0,9.3438
1768568127.6860504,9.9651,2.9773,-0.0,-0.8039,0.4192,-0.0,0.0178,-0.6862,0.0,-0.1762,0.0,0.0689,0.0,0,10.9219
1768568127.7971935,10.0762,3.0184,-0.0,-0.8028,0.3403,-0.0,0.0052,-0.7632,0.0,-0.0674,0.0,0.0772,0.0,0,11.9531
1768568127.9216323,10.2006,3.0551,-0.0,-0.8025,0.2422,0.0,0.0011,-0.7845,0.0,-0.0074,0.0,0.0797,0.0,0,12.5625
1768568128.0530822,10.3321,3.0803,-0.0,-0.8023,0.1399,0.0,0.0017,-0.7588,0.0,0.0116,0.0,0.0772,0.0,0,12.7109
1768568128.1750371,10.454,3.0919,-0.0,-0.802,0.0496,0.0,0.0031,-0.7065,-0.0,0.0097,-0.0,0.0718,0.0,0,12.4062
1768568128.2965553,10.5756,3.0929,-0.0,-0.8016,-0.0312,0.0,0.0038,-0.6375,-0.0,0.0005,-0.0,0.0647,0.0,0,11.8984
1768568128.4163456,10.6953,3.0881,-0.0,-0.7942,-0.0141,-0.0,0.0273,1.0192,-0.0,-1.9044,-0.0,-0.0899,0.0,0,10.9062
1768568128.5459354,10.8249,3.0978,-0.0,-0.8055,0.1809,-0.0,-0.1797,1.7857,0.0,-0.9708,-0.0,-0.1652,0.0,1,4.9648
1768568128.6642501,10.9433,3.1315,-0.0,-0.8258,0.3508,0.0,-0.0063,0.7259,0.0,3.6312,0.0,-0.1142,0.0,1,4.207
1768568128.7875686,11.0666,3.1796,-0.0,-0.8143,0.4195,0.0,0.119,0.2353,0.0,-0.2257,0.0,-0.0219,0.0,0,5.3477
1768568128.9147007,11.1937,3.2328,-0.0,-0.8022,0.4137,0.0,0.0706,-0.2719,0.0,-0.3878,0.0,0.0274,0.0,0,7.4805
1768568129.032678,11.3117,3.2787,-0.0,-0.7962,0.3668,0.0,0.0345,-0.5013,0.0,-0.2287,0.0,0.0502,0.0,0,9.2734
1768568129.1569066,11.4359,3.3206,-0.0,-0.7933,0.2957,0.0,0.0142,-0.6102,0.0,-0.1054,0.0,0.0616,0.0,0,10.5156
1768568129.282031,11.561,3.3529,-0.0,-0.7922,0.2162,0.0,0.0054,-0.6428,0.0,-0.0422,0.0,0.0652,0.0,0,11.1797
1768568129.4029877,11.682,3.3742,-0.0,-0.7918,0.1393,0.0,0.0021,-0.6329,0.0,-0.0159,0.0,0.0643,0.0,0,11.3594
1768568129.5324275,11.8114,3.387,-0.0,-0.7916,0.0599,0.0,0.0008,-0.5942,0.0,-0.0071,0.0,0.0604,0.0,0,11.2344
1768568129.6544454,11.9334,3.39,-0.0,-0.7916,-0.0099,0.0,-0.0001,-0.5395,-0.0,-0.0077,-0.0,0.0548,0.0,0,10.9141
1768568129.7770875,12.0561,3.3882,-0.0,-0.785,0.0178,0.0,0.0121,1.0894,0.0,-1.8611,-0.0,-0.0959,0.0,0,10.1875
1768568129.8997414,12.1787,3.4005,-0.0,-0.7958,0.1992,0.0,-0.1722,1.7574,0.0,-0.9597,0.0,-0.1628,0.0,1,4.9375
1768568130.0269866,12.306,3.4388,-0.0,-0.8117,0.361,0.0,0.0586,0.7567,0.0,2.1013,0.0,-0.0957,0.0,1,4.1914
1768568130.1462538,12.4253,3.4862,-0.0,-0.7988,0.4164,0.0,0.1114,0.136,0.0,-0.3283,0.0,-0.0121,0.0,0,5.6094
1768568130.2731378,12.5521,3.5383,-0.0,-0.7879,0.4018,0.0,0.062,-0.3153,-0.0,-0.3563,0.0,0.0316,0.0,0,7.7656
1768568130.4001048,12.6791,3.5858,-0.0,-0.7824,0.3471,0.0,0.0279,-0.5256,-0.0,-0.1915,-0.0,0.0528,0.0,0,9.4297
1768568130.5244164,12.8034,3.6251,-0.0,-0.7801,0.2745,0.0,0.0111,-0.6123,-0.0,-0.0859,-0.0,0.0619,0.0,0,10.5469
1768568130.650272,12.9293,3.6547,-0.0,-0.7793,0.1955,0.0,0.0039,-0.6332,-0.0,-0.0338,-0.0,0.0642,0.0,0,11.0859
1768568130.7722712,13.0513,3.6736,-0.0,-0.779,0.1202,0.0,0.0013,-0.6168,-0.0,-0.013,-0.0,0.0626,0.0,0,11.1875
1768568130.8968012,13.1758,3.684,-0.0,-0.7789,0.0449,0.0,0.0002,-0.5753,-0.0,-0.0069,-0.0,0.0584,0.0,0,11.0234
1768568131.023015,13.302,3.6852,-0.0,-0.7789,-0.0241,0.0,-0.0007,-0.5172,-0.0,-0.0083,-0.0,0.0525,0.0,0,10.6797
1768568131.145906,13.4249,3.6819,-0.0,-0.7726,0.0062,0.0,0.0079,1.1129,-0.0,-1.877,-0.0,-0.0977,0.0,0,9.9688
1768568131.2774794,13.5565,3.6953,-0.0,-0.7862,0.2115,0.0,-0.1876,1.7933,-0.0,-0.8386,-0.0,-0.1677,0.0,1,4.8047
1768568131.4092844,13.6883,3.7371,-0.0,-0.8057,0.3864,-0.0,0.042,0.7475,-0.0,2.6178,-0.0,-0.1015,0.0,1,4.1211
1768568131.5294852,13.8085,3.7877,-0.0,-0.7929,0.4446,-0.0,0.1161,0.1493,-0.0,-0.3198,-0.0,-0.0133,0.0,0,5.4062
1768568131.658308,13.9373,3.8434,-0.0,-0.7815,0.4295,-0.0,0.0644,-0.334,-0.0,-0.3809,-0.0,0.0334,0.0,0,7.6719
1768568131.7802722,14.0593,3.8931,-0.0,-0.776,0.373,-0.0,0.0286,-0.5556,-0.0,-0.2051,-0.0,0.0557,0.0,0,9.4844
1768568131.9031117,14.1821,3.9344,-0.0,-0.7737,0.298,-0.0,0.0112,-0.6493,-0.0,-0.0898,-0.0,0.0656,0.0,0,10.7109
1768568132.0233676,14.3024,3.9654,-0.0,-0.7729,0.2181,-0.0,0.0042,-0.6742,-0.0,-0.0333,-0.0,0.0684,0.0,0,11.3359
1768568132.153309,14.4323,3.988,-0.0,-0.7725,0.1318,-0.0,0.0018,-0.658,-0.0,-0.0088,-0.0,0.0668,0.0,0,11.4844
1768568132.2724695,14.5515,3.9991,-0.0,-0.7723,0.0551,-0.0,0.0012,-0.6172,0.0,-0.0035,0.0,0.0627,0.0,0,11.3125
1768568132.396295,14.6753,4.0048,-0.0,-0.7648,0.0715,-0.0,0.0275,0.9967,0.0,-1.7788,0.0,-0.0886,0.0,0,10.8047
1768568132.521143,14.8001,4.0236,-0.0,-0.774,0.2481,-0.0,-0.1558,1.6931,0.0,-0.9326,0.0,-0.1573,0.0,1,4.9883
1768568132.645473,14.9245,4.0664,-0.0,-0.7872,0.3997,-0.0,0.067,0.7313,0.0,1.9015,0.0,-0.0901,0.0,1,4.2031
1768568132.7696168,15.0486,4.1195,-0.0,-0.7738,0.4498,-0.0,0.1067,0.0681,0.0,-0.3776,0.0,-0.0054,0.0,0,5.6992
1768568132.890159,15.1692,4.1727,-0.0,-0.764,0.4294,-0.0,0.0576,-0.3602,0.0,-0.3608,0.0,0.036,0.0,0,7.7578
1768568133.0160027,15.295,4.2233,-0.0,-0.7591,0.3689,-0.0,0.0237,-0.5717,0.0,-0.1842,0.0,0.0574,0.0,0,9.5547
1768568133.1391523,15.4182,4.2641,-0.0,-0.7573,0.2925,-0.0,0.0083,-0.6565,0.0,-0.0769,0.0,0.0664,0.0,0,10.7109
1768568133.2666335,15.5456,4.2963,-0.0,-0.7567,0.2059,-0.0,0.0023,-0.6765,0.0,-0.0233,0.0,0.0687,0.0,0,11.2969
1768568133.389238,15.6682,4.3161,-0.0,-0.7565,0.1256,-0.0,0.0009,-0.6573,0.0,-0.0046,0.0,0.0668,0.0,0,11.3906
1768568133.5179887,15.797,4.327,-0.0,-0.7564,0.0436,-0.0,0.0006,-0.6108,0.0,-0.0012,0.0,0.0621,0.0,0,11.1875
1768568133.6376803,15.9167,4.328,-0.0,-0.7564,-0.0263,-0.0,0.0003,-0.5513,0.0,-0.0051,0.0,0.056,0.0,0,10.8047
1768568133.7623053,16.0413,4.3239,-0.0,-0.7498,-0.0003,-0.0,0.0114,1.0999,0.0,-1.8965,0.0,-0.0965,0.0,0,10.0312
1768568133.889702,16.1687,4.3352,-0.0,-0.762,0.1938,-0.0,-0.1822,1.7865,-0.0,-0.9178,-0.0,-0.166,-0.0,1,4.7812
1768568134.0149882,16.294,4.3728,-0.0,-0.783,0.371,-0.0,0.0049,0.7264,-0.0,3.4416,-0.0,-0.1111,-0.0,1,4.0742
1768568134.1342452,16.4132,4.4219,-0.0,-0.7714,0.4364,-0.0,0.1196,0.2207,-0.0,-0.2408,-0.0,-0.0204,-0.0,0,5.1797
1768568134.262134,16.5411,4.4771,-0.0,-0.7594,0.4282,-0.0,0.0696,-0.2934,0.0,-0.395,0.0,0.0295,-0.0,0,7.3945
1768568134.3874402,16.6664,4.528,-0.0,-0.7532,0.3739,-0.0,0.0311,-0.5362,0.0,-0.2171,0.0,0.0537,-0.0,0,9.1953
1768568134.5152402,16.7942,4.5714,-0.0,-0.7506,0.297,-0.0,0.0119,-0.6396,0.0,-0.0935,0.0,0.0646,-0.0,0,10.4766
1768568134.638099,16.9171,4.603,-0.0,-0.7497,0.2161,0.0,0.0045,-0.6662,0.0,-0.035,0.0,0.0676,-0.0,0,11.1016
1768568134.7646842,17.0437,4.6249,-0.0,-0.7493,0.1328,0.0,0.0019,-0.6512,0.0,-0.0105,0.0,0.0662,-0.0,0,11.2578
1768568134.8850965,17.1641,4.6362,-0.0,-0.7492,0.0568,0.0,0.0011,-0.6116,0.0,-0.0045,0.0,0.0621,-0.0,0,11.1094
1768568135.0130613,17.2921,4.6427,-0.0,-0.7416,0.0815,0.0,0.0166,1.0639,-0.0,-1.8186,0.0,-0.0938,-0.0,0,9.8594
1768568135.1363661,17.4154,4.663,-0.0,-0.7517,0.2618,0.0,-0.1604,1.701,0.0,-0.8717,0.0,-0.1589,-0.0,1,4.8516
1768568135.2638166,17.5428,4.7075,-0.0,-0.7652,0.4133,0.0,0.0675,0.7271,0.0,1.927,0.0,-0.0898,-0.0,1,4.125
1768568135.3897426,17.6687,4.7636,-0.0,-0.7514,0.4627,0.0,0.1058,0.0421,0.0,-0.397,0.0,-0.0029,-0.0,0,5.75
1768568135.5120435,17.791,4.8196,-0.0,-0.7416,0.4381,0.0,0.0547,-0.3911,0.0,-0.3567,0.0,0.0391,-0.0,0,7.8477
1768568135.6367562,17.9158,4.871,-0.0,-0.7371,0.3742,0.0,0.0217,-0.596,0.0,-0.1766,0.0,0.0599,-0.0,0,9.5938
1768568135.7603273,18.0393,4.9123,-0.0,-0.7354,0.295,0.0,0.0072,-0.6769,-0.0,-0.0704,-0.0,0.0685,-0.0,0,10.7422
1768568135.8827848,18.1618,4.9434,-0.0,-0.7349,0.2102,0.0,0.0021,-0.6941,-0.0,-0.0202,-0.0,0.0705,-0.0,0,11.2969
1768568136.0039937,18.283,4.9636,-0.0,-0.7348,0.1278,0.0,0.001,-0.6739,-0.0,-0.0019,-0.0,0.0685,-0.0,0,11.3906
1768568136.129101,18.4081,4.9745,-0.0,-0.7346,0.0456,0.0,0.001,-0.6272,-0.0,0.0006,-0.0,0.0637,-0.0,0,11.1641
1768568136.2572114,18.5362,4.9754,-0.0,-0.7345,-0.0295,0.0,0.0008,-0.563,-0.0,-0.0044,-0.0,0.0571,-0.0,0,10.7656
1768568136.3802896,18.6593,4.9712,-0.0,-0.7278,0.0004,0.0,0.007,1.1306,0.0,-1.9299,0.0,-0.0987,-0.0,0,9.7422
1768568136.508529,18.7875,4.9827,-0.0,-0.7405,0.1963,0.0,-0.1849,1.7925,0.0,-0.8967,0.0,-0.1668,-0.0,1,4.7227
1768568136.6332958,18.9123,5.0207,-0.0,-0.7617,0.3738,0.0,0.0042,0.7247,-0.0,3.4682,-0.0,-0.1113,-0.0,1,4.0195
1768568136.7535472,19.0325,5.0701,-0.0,-0.7501,0.4391,0.0,0.1199,0.2195,-0.0,-0.2417,-0.0,-0.0203,-0.0,0,5.1094
1768568136.8786304,19.1576,5.1243,-0.0,-0.7382,0.4315,0.0,0.0709,-0.2878,-0.0,-0.4005,-0.0,0.0289,-0.0,0,7.207
1768568137.0001042,19.2791,5.1745,-0.0,-0.7321,0.3791,0.0,0.0324,-0.5323,-0.0,-0.2253,-0.0,0.0533,-0.0,0,9.0156
1768568137.1235795,19.4026,5.2168,-0.0,-0.7294,0.3062,0.0,0.013,-0.6378,0.0,-0.1016,-0.0,0.0644,-0.0,0,10.2734
1768568137.2392669,19.5183,5.2481,-0.0,-0.7284,0.2292,0.0,0.0051,-0.6691,0.0,-0.0405,-0.0,0.0678,-0.0,0,10.9688
1768568137.41226,19.6913,5.2779,-0.0,-0.7279,0.1138,0.0,0.0017,-0.6468,0.0,-0.0074,-0.0,0.0657,-0.0,0,11.1094
1768568137.5029678,19.782,5.2856,-0.0,-0.7278,0.057,0.0,0.0012,-0.615,0.0,-0.0042,-0.0,0.0625,-0.0,0,10.9219
1768568137.6117592,19.8908,5.2905,-0.0,-0.7209,0.0618,0.0,0.0529,0.79,-0.0,-1.5623,0.0,-0.0729,-0.0,0,9.3984
1768568137.7150393,19.994,5.3028,-0.0,-0.7245,0.1922,0.0,-0.115,1.5917,-0.0,-1.2929,0.0,-0.1437,-0.0,0,5.043
1768568137.8110316,20.09,5.3289,-0.0,-0.74,0.3551,0.0,-0.1947,1.7522,0.0,-0.4225,0.0,-0.1702,-0.0,1,4.1836
1768568137.9088466,20.1878,5.3721,-0.0,-0.7573,0.4944,0.0,-0.0386,0.6632,0.0,4.5682,0.0,-0.1212,-0.0,1,4.0078
1768568138.0111094,20.2901,5.4258,-0.0,-0.7489,0.5525,0.0,0.1261,0.3004,0.0,-0.055,0.0,-0.0286,-0.0,0,5.2148
1768568138.1112323,20.3902,5.481,-0.0,-0.738,0.553,0.0,0.0864,-0.2476,0.0,-0.5176,-0.0,0.025,-0.0,0,7.2148
1768568138.2209175,20.4999,5.5401,-0.0,-0.7313,0.5045,0.0,0.0379,-0.5858,-0.0,-0.3333,-0.0,0.0582,-0.0,0,9.1562
1768568138.310469,20.5895,5.5829,-0.0,-0.7291,0.4448,0.0,0.0153,-0.7263,-0.0,-0.178,-0.0,0.0728,-0.0,0,10.7344
1768568138.4128594,20.6919,5.6243,-0.0,-0.7282,0.3662,0.0,0.0034,-0.804,-0.0,-0.0659,-0.0,0.0813,-0.0,0,11.8672
1768568138.5145104,20.7935,5.6574,-0.0,-0.7281,0.2826,0.0,-0.0,-0.8286,-0.0,-0.008,-0.0,0.0842,-0.0,0,12.4688
1768568138.6142497,20.8933,5.6813,-0.0,-0.7281,0.2008,0.0,0.0005,-0.8197,-0.0,0.0154,-0.0,0.0834,-0.0,0,12.625
1768568138.7134411,20.9924,5.6972,-0.0,-0.7279,0.1211,0.0,0.0024,-0.7882,-0.0,0.0202,-0.0,0.0802,-0.0,0,12.4609
1768568138.8274982,21.1065,5.706,-0.0,-0.7275,0.0342,0.0,0.0044,-0.732,-0.0,0.0136,-0.0,0.0744,-0.0,0,12.0781
1768568138.9207242,21.1997,5.7076,-0.0,-0.721,0.0214,-0.0,0.0873,0.5127,-0.0,-1.325,-0.0,-0.0496,-0.0,0,11.4062
1768568139.0171068,21.2961,5.714,-0.0,-0.7205,0.1266,-0.0,-0.0812,1.5027,-0.0,-1.6032,-0.0,-0.1327,-0.0,0,5.2578
1768568139.1192365,21.3982,5.7354,-0.0,-0.7353,0.2973,-0.0,-0.1919,1.7677,0.0,-0.5944,0.0,-0.169,-0.0,1,4.2422
1768568139.2171984,21.4962,5.7728,-0.0,-0.7524,0.4353,-0.0,-0.0308,0.6822,0.0,4.3134,0.0,-0.1193,-0.0,1,3.9922
1768568139.3225799,21.6016,5.8222,-0.0,-0.7436,0.4966,-0.0,0.1242,0.3124,-0.0,-0.067,0.0,-0.0298,-0.0,0,5.2734
1768568139.4189458,21.6979,5.8704,-0.0,-0.7331,0.5005,-0.0,0.0887,-0.1902,-0.0,-0.4769,-0.0,0.0195,-0.0,0,7.0586
1768568139.5198028,21.7988,5.9199,-0.0,-0.7264,0.4639,-0.0,0.0459,-0.4959,-0.0,-0.3379,-0.0,0.0494,-0.0,0,8.7578
1768568139.6202114,21.8992,5.9631,-0.0,-0.7232,0.4063,-0.0,0.0205,-0.651,-0.0,-0.1834,-0.0,0.0653,-0.0,0,10.1562
1768568139.7220604,22.0011,6.001,-0.0,-0.7219,0.3355,-0.0,0.0075,-0.7275,-0.0,-0.0804,-0.0,0.0735,-0.0,0,11.1719
1768568139.825303,22.1043,6.0321,-0.0,-0.7214,0.2573,-0.0,0.0024,-0.7534,-0.0,-0.0239,-0.0,0.0765,-0.0,0,11.6875
1768568139.9227529,22.2018,6.0533,-0.0,-0.7212,0.1851,-0.0,0.0014,-0.7468,-0.0,-0.0004,-0.0,0.0759,-0.0,0,11.8359
1768568140.0250268,22.304,6.0684,-0.0,-0.7211,0.1103,-0.0,0.0019,-0.718,-0.0,0.0074,-0.0,0.073,-0.0,0,11.7188
1768568140.1291597,22.4082,6.0761,-0.0,-0.7208,0.0372,-0.0,0.0026,-0.6715,-0.0,0.0053,-0.0,0.0682,-0.0,0,11.4141
1768568140.224913,22.5039,6.0782,-0.0,-0.7144,0.0301,-0.0,0.0761,0.593,0.0,-1.3881,0.0,-0.0565,-0.0,0,10.3828
1768568140.3255353,22.6045,6.0862,-0.0,-0.7153,0.145,-0.0,-0.0945,1.5424,0.0,-1.502,0.0,-0.1371,-0.0,0,5.0859
1768568140.4243417,22.7033,6.1086,-0.0,-0.7304,0.312,-0.0,-0.1937,1.7665,0.0,-0.5422,0.0,-0.1697,-0.0,1,4.2031
1768568140.5287828,22.8078,6.1502,-0.0,-0.7475,0.4537,-0.0,-0.0054,0.6863,0.0,3.8472,0.0,-0.1113,-0.0,1,3.9746
1768568140.62814,22.9071,6.1983,-0.0,-0.7385,0.5101,-0.0,0.1247,0.3014,0.0,-0.0808,0.0,-0.0286,-0.0,0,5.2734
1768568140.7321954,23.0112,6.2524,-0.0,-0.7273,0.5108,-0.0,0.0836,-0.2418,0.0,-0.4816,0.0,0.0244,-0.0,0,7.1914
1768568140.8340816,23.1131,6.3026,-0.0,-0.721,0.4697,-0.0,0.0416,-0.5327,0.0,-0.3239,0.0,0.053,-0.0,0,8.9609
1768568140.9381125,23.2171,6.3487,-0.0,-0.7181,0.4048,-0.0,0.0166,-0.685,0.0,-0.1623,-0.0,0.0688,-0.0,0,10.4297
1768568141.0400145,23.319,6.3853,-0.0,-0.7171,0.3333,-0.0,0.0057,-0.7511,0.0,-0.068,-0.0,0.076,-0.0,0,11.3516
1768568141.134885,23.4139,6.4137,-0.0,-0.7168,0.2599,-0.0,0.0018,-0.7715,-0.0,-0.0188,-0.0,0.0783,-0.0,0,11.8438
1768568141.2339063,23.5129,6.4357,-0.0,-0.7166,0.1837,-0.0,0.0012,-0.7628,-0.0,0.0041,-0.0,0.0776,-0.0,0,11.9688
1768568141.337791,23.6168,6.4508,-0.0,-0.7165,0.1052,-0.0,0.0021,-0.7307,-0.0,0.0103,-0.0,0.0743,-0.0,0,11.8203
1768568141.434886,23.7139,6.4576,-0.0,-0.7162,0.0371,-0.0,0.003,-0.6863,0.0,0.0072,-0.0,0.0698,-0.0,0,11.4922
1768568141.5374305,23.8164,6.4599,-0.0,-0.7092,0.0327,-0.0,0.0692,0.6714,0.0,-1.4931,0.0,-0.063,-0.0,0,9.3047
1768568141.6434958,23.9225,6.4698,-0.0,-0.712,0.1668,-0.0,-0.115,1.6026,0.0,-1.3602,0.0,-0.1439,-0.0,1,4.9492
1768568141.7473369,24.0263,6.4953,-0.0,-0.7271,0.3166,-0.0,-0.0629,0.7458,0.0,4.5045,0.0,-0.1344,-0.0,1,4.1289
1768568141.8423448,24.1213,6.529,-0.0,-0.7214,0.3816,-0.0,0.1136,0.4735,0.0,0.2385,0.0,-0.0477,-0.0,1,4.8984
1768568141.9430523,24.2221,6.5695,-0.0,-0.7104,0.4028,-0.0,0.093,-0.0294,0.0,-0.3926,0.0,0.0039,-0.0,0,6.4531
1768568142.0469773,24.326,6.6098,-0.0,-0.7029,0.3828,-0.0,0.0549,-0.3321,-0.0,-0.3226,-0.0,0.0333,-0.0,0,7.957
1768568142.1424134,24.4214,6.6447,-0.0,-0.6989,0.3427,-0.0,0.0299,-0.4867,-0.0,-0.2019,-0.0,0.0489,-0.0,0,9.0469
1768568142.246152,24.5252,6.6778,-0.0,-0.6967,0.2866,-0.0,0.014,-0.5723,-0.0,-0.1076,-0.0,0.0578,-0.0,0,9.8203
1768568142.345887,24.6249,6.7033,-0.0,-0.6957,0.228,-0.0,0.0062,-0.6048,-0.0,-0.055,-0.0,0.0613,-0.0,0,10.2812
1768568142.4472253,24.7262,6.7234,-0.0,-0.6953,0.166,-0.0,0.0022,-0.6075,-0.0,-0.0259,-0.0,0.0617,-0.0,0,10.4531
1768568142.5458677,24.8249,6.7369,-0.0,-0.6952,0.1066,-0.0,0.0004,-0.5898,-0.0,-0.0125,-0.0,0.0599,-0.0,0,10.4219
1768568142.6466475,24.9256,6.7446,-0.0,-0.6952,0.0496,-0.0,-0.0005,-0.558,-0.0,-0.0078,-0.0,0.0567,-0.0,0,10.2656
1768568142.7469316,25.0259,6.7485,-0.0,-0.6893,0.0522,-0.0,0.0591,0.7006,0.0,-1.4324,0.0,-0.0657,-0.0,0,8.9141
1768568142.8500793,25.1291,6.7601,-0.0,-0.6923,0.1826,-0.0,-0.1123,1.5864,0.0,-1.3238,0.0,-0.1429,-0.0,1,4.8516
1768568142.9526951,25.2317,6.7865,-0.0,-0.7037,0.3132,-0.0,0.0145,0.7494,0.0,2.8981,0.0,-0.1051,-0.0,1,4.0898
1768568143.0521877,25.3312,6.8208,-0.0,-0.6952,0.3728,-0.0,0.1124,0.3549,0.0,-0.0518,0.0,-0.0343,-0.0,0,5.1602
1768568143.1495512,25.4286,6.8586,-0.0,-0.6852,0.3842,-0.0,0.0833,-0.0881,0.0,-0.3825,0.0,0.0096,-0.0,0,6.6406
1768568143.2518518,25.5309,6.8968,-0.0,-0.6786,0.3606,-0.0,0.0482,-0.3498,0.0,-0.2873,0.0,0.0351,-0.0,0,7.9766
1768568143.3538501,25.6329,6.9315,-0.0,-0.675,0.317,-0.0,0.0251,-0.4887,0.0,-0.1717,0.0,0.0492,-0.0,0,8.9922
1768568143.4558494,25.7349,6.9611,-0.0,-0.6731,0.2632,-0.0,0.0119,-0.5566,0.0,-0.0936,0.0,0.0563,-0.0,0,9.6562
1768568143.5536947,25.8327,6.9838,-0.0,-0.6724,0.2084,-0.0,0.0052,-0.581,0.0,-0.05,0.0,0.0589,-0.0,0,10.0
1768568143.6550238,25.934,7.002,-0.0,-0.672,0.149,0.0,0.0015,-0.5797,0.0,-0.0248,0.0,0.0588,-0.0,0,10.1172
1768568143.7551389,26.0341,7.0142,-0.0,-0.672,0.0908,0.0,-0.0003,-0.5593,0.0,-0.013,0.0,0.0568,-0.0,0,10.0703
1768568143.8567643,26.1358,7.0206,-0.0,-0.6721,0.0353,0.0,-0.0014,-0.5256,0.0,-0.0088,0.0,0.0534,-0.0,0,9.9062
1768568143.9600928,26.2391,7.0234,-0.0,-0.6662,0.0429,0.0,0.0499,0.7729,0.0,-1.501,0.0,-0.0717,-0.0,0,8.3047
1768568144.0613284,26.3403,7.0337,-0.0,-0.67,0.1737,0.0,-0.1175,1.6065,0.0,-1.3172,0.0,-0.1448,-0.0,1,4.7773
1768568144.166663,26.4457,7.0602,-0.0,-0.6818,0.3077,0.0,0.0202,0.7525,0.0,2.762,0.0,-0.1038,-0.0,1,4.0195
1768568144.2663279,26.5453,7.094,-0.0,-0.673,0.367,0.0,0.1126,0.3503,-0.0,-0.0651,0.0,-0.0338,-0.0,0,5.0625
1768568144.3683252,26.6473,7.1324,-0.0,-0.6628,0.378,0.0,0.0821,-0.0971,-0.0,-0.3793,-0.0,0.0104,-0.0,0,6.5977
1768568144.4728549,26.7519,7.171,-0.0,-0.6562,0.3528,0.0,0.0468,-0.3559,-0.0,-0.2774,-0.0,0.0357,-0.0,0,7.918
1768568144.5720038,26.851,7.2039,-0.0,-0.6527,0.3105,-0.0,0.025,-0.4848,-0.0,-0.1684,-0.0,0.0488,-0.0,0,8.8828
1768568144.6701527,26.9492,7.2322,-0.0,-0.6509,0.2589,-0.0,0.0123,-0.5489,-0.0,-0.0943,-0.0,0.0555,-0.0,0,9.4766
1768568144.7727208,27.0517,7.2557,-0.0,-0.6501,0.2014,-0.0,0.0052,-0.5735,-0.0,-0.0492,-0.0,0.0581,-0.0,0,9.8125
1768568144.877604,27.1566,7.2736,-0.0,-0.6498,0.1411,-0.0,0.0014,-0.5704,-0.0,-0.0246,-0.0,0.0579,-0.0,0,9.9219
1768568144.971777,27.2508,7.2843,-0.0,-0.6497,0.0889,-0.0,-0.0003,-0.5513,-0.0,-0.0141,-0.0,0.056,-0.0,0,9.8672
1768568145.0744004,27.3534,7.2906,-0.0,-0.6498,0.0342,-0.0,-0.0015,-0.518,-0.0,-0.0097,-0.0,0.0526,-0.0,0,9.7031
1768568145.192893,27.4719,7.2939,-0.0,-0.6435,0.0543,-0.0,0.0245,0.9894,-0.0,-1.7141,-0.0,-0.0887,-0.0,0,8.75
1768568145.2929568,27.572,7.3056,-0.0,-0.6494,0.1919,-0.0,-0.1337,1.6492,0.0,-1.1898,0.0,-0.1501,-0.0,1,4.5312
1768568145.3936882,27.6727,7.3332,-0.0,-0.663,0.3282,-0.0,-0.0028,0.743,0.0,3.387,0.0,-0.1117,-0.0,1,3.9102
1768568145.492288,27.7713,7.3679,-0.0,-0.6551,0.3885,-0.0,0.1155,0.3941,0.0,0.0286,0.0,-0.0386,-0.0,1,4.8984
1768568145.5979712,27.877,7.4111,-0.0,-0.6439,0.4017,-0.0,0.0845,-0.1084,0.0,-0.3984,0.0,0.0115,-0.0,0,6.5078
1768568145.696213,27.9752,7.4498,-0.0,-0.6374,0.3768,-0.0,0.0491,-0.3694,0.0,-0.2986,0.0,0.037,-0.0,0,7.8203
1768568145.7979646,28.077,7.4861,-0.0,-0.6337,0.331,-0.0,0.0252,-0.513,0.0,-0.176,0.0,0.0516,-0.0,0,8.8672
1768568145.8958218,28.1748,7.5154,-0.0,-0.632,0.2781,-0.0,0.0124,-0.5802,0.0,-0.0974,0.0,0.0586,-0.0,0,9.5391
1768568145.9975004,28.2765,7.5406,-0.0,-0.6311,0.2172,-0.0,0.0052,-0.6078,0.0,-0.0481,0.0,0.0616,-0.0,0,9.9141
1768568146.1011379,28.3801,7.5596,-0.0,-0.6308,0.1551,-0.0,0.0018,-0.606,0.0,-0.0224,0.0,0.0615,-0.0,0,10.0391
1768568146.1978254,28.4768,7.572,-0.0,-0.6307,0.096,-0.0,0.0002,-0.5853,0.0,-0.011,0.0,0.0595,-0.0,0,9.9844
1768568146.2992628,28.5783,7.5788,-0.0,-0.6307,0.038,-0.0,-0.0007,-0.5503,0.0,-0.0073,0.0,0.0559,-0.0,0,9.8125
1768568146.3970883,28.6761,7.5815,-0.0,-0.625,0.0394,0.0,0.0618,0.6721,0.0,-1.4081,0.0,-0.0633,-0.0,0,8.8125
1768568146.5048542,28.7839,7.5921,-0.0,-0.6282,0.1732,0.0,-0.1154,1.5999,0.0,-1.331,0.0,-0.144,-0.0,1,4.6641
1768568146.6073694,28.8864,7.6181,-0.0,-0.6427,0.3195,0.0,-0.047,0.7462,0.0,4.2522,0.0,-0.1284,-0.0,1,3.9043
1768568146.7269847,29.006,7.6614,-0.0,-0.6337,0.3929,0.0,0.1147,0.325,0.0,-0.0997,0.0,-0.0311,-0.0,1,4.7109
1768568146.8286438,29.1076,7.7023,-0.0,-0.6234,0.4008,0.0,0.0817,-0.1304,-0.0,-0.396,-0.0,0.0137,-0.0,0,6.5117
1768568146.9287968,29.2078,7.7409,-0.0,-0.6172,0.3742,0.0,0.047,-0.3813,-0.0,-0.2895,-0.0,0.0382,-0.0,0,7.8281
1768568147.0267231,29.3057,7.7758,-0.0,-0.6137,0.3291,0.0,0.0245,-0.5161,-0.0,-0.1722,-0.0,0.0519,-0.0,0,8.7812
1768568147.122847,29.4018,7.8049,-0.0,-0.612,0.276,-0.0,0.0119,-0.5814,-0.0,-0.0949,-0.0,0.0587,-0.0,0,9.4297
1768568147.22594,29.5049,7.83,-0.0,-0.6112,0.2151,-0.0,0.005,-0.6077,-0.0,-0.0467,-0.0,0.0616,-0.0,0,9.7891
1768568147.3257318,29.6047,7.8488,-0.0,-0.6109,0.153,-0.0,0.0016,-0.6052,-0.0,-0.0216,-0.0,0.0614,-0.0,0,9.9062
1768568147.4249163,29.7039,7.861,-0.0,-0.6108,0.094,-0.0,0.0001,-0.584,-0.0,-0.0106,-0.0,0.0593,-0.0,0,9.8516
1768568147.5263622,29.8054,7.8676,-0.0,-0.6109,0.0362,-0.0,-0.0008,-0.5486,-0.0,-0.0072,-0.0,0.0557,-0.0,0,9.6719
1768568147.6247816,29.9038,7.8701,-0.0,-0.6052,0.0377,-0.0,0.0615,0.6744,-0.0,-1.4112,-0.0,-0.0635,-0.0,0,8.6875
1768568147.7312841,30.0103,7.8805,-0.0,-0.6083,0.1718,-0.0,-0.1159,1.6021,-0.0,-1.3318,0.0,-0.1442,-0.0,1,4.5977
