timestamp,elapsed_time,px,py,pz,vx,vy,vz,ax,ay,az,roll,pitch,yaw,obstacle_detected,obstacle_distance
1768568311.7274191,0.1036,8.2624,0.0,-7.894,0.0,0.0,-0.0132,0.0,0.0,-0.0074,0.0,0.0,0.0,0,14.375
1768568311.8256738,0.2019,8.2642,0.0,-7.8955,0.0739,0.0,-0.1146,1.8703,0.0,-3.5781,0.0,-0.1429,0.0,0,14.3281
1768568311.9254172,0.3016,8.2841,0.0,-7.925,0.3318,0.0,-0.4382,2.8471,0.0,-2.2367,0.0,-0.2337,0.0,0,14.0391
1768568312.026623,0.4028,8.3309,0.0,-7.9761,0.6124,0.0,-0.563,2.7637,0.0,-0.435,0.0,-0.2641,0.0,0,14.0156
1768568312.1283762,0.5046,8.4073,0.0,-8.0338,0.8824,0.0,-0.5525,2.5271,0.0,0.509,0.0,-0.2655,0.0,0,13.9766
1768568312.2319217,0.6081,8.5135,0.0,-8.0881,1.1352,0.0,-0.4769,2.2918,0.0,0.8549,0.0,-0.2507,0.0,0,13.8906
1768568312.329706,0.7059,8.6367,0.0,-8.131,1.3517,0.0,-0.3891,2.0846,0.0,0.8881,0.0,-0.23,0.0,0,13.7734
1768568312.4297564,0.806,8.7804,0.0,-8.1653,1.5482,0.0,-0.3051,1.8845,0.0,0.798,0.0,-0.207,0.0,0,13.6328
1768568312.5334575,0.9097,8.9478,0.0,-8.1925,1.7301,0.0,-0.2304,1.684,0.0,0.6625,0.0,-0.1834,0.0,0,13.4844
1768568312.6293225,1.0055,9.1214,0.0,-8.2118,1.883,0.0,-0.1731,1.5031,0.0,0.5333,0.0,-0.1624,0.0,0,13.3359
1768568312.741938,1.1181,9.3454,0.0,-8.2283,2.0427,0.0,-0.1203,1.302,0.0,0.3985,0.0,-0.1397,0.0,0,13.1641
1768568312.8346977,1.2109,9.5408,0.0,-8.2379,2.1567,0.0,-0.0875,1.1516,0.0,0.3084,0.0,-0.1232,0.0,0,13.0
1768568312.9307148,1.3069,9.7529,0.0,-8.245,2.2604,0.0,-0.0617,1.0103,0.0,0.2335,0.0,-0.1081,0.0,0,12.7891
1768568313.032595,1.4088,9.9885,0.0,-8.2502,2.3565,0.0,-0.0411,0.8759,0.0,0.1716,0.0,-0.094,0.0,0,12.5859
1768568313.1436422,1.5198,10.2552,0.0,-8.2539,2.4464,0.0,-0.025,0.7476,0.0,0.1211,0.0,-0.0807,0.0,0,12.375
1768568313.2413332,1.6175,10.4933,0.0,-8.2557,2.5134,0.0,-0.015,0.6505,0.0,0.0886,0.0,-0.0707,0.0,0,12.1406
1768568313.3428726,1.7191,10.7529,0.0,-8.2569,2.5751,0.0,-0.0074,0.5603,-0.0,0.0628,-0.0,-0.0616,0.0,0,11.9062
1768568313.44267,1.8189,11.0105,0.0,-8.2573,2.6267,0.0,-0.0021,0.4842,-0.0,0.0443,-0.0,-0.0539,0.0,0,11.6719
1768568313.5418243,1.918,11.2808,0.0,-8.2573,2.6725,0.0,0.0016,0.4162,-0.0,0.0303,-0.0,-0.0471,0.0,0,11.4219
1768568313.6413708,2.0176,11.5473,0.0,-8.257,2.7108,0.0,0.0041,0.3591,-0.0,0.0204,-0.0,-0.0414,0.0,0,11.1719
1768568313.7456415,2.1218,11.8338,0.0,-8.2565,2.7457,0.0,0.0058,0.307,-0.0,0.0123,-0.0,-0.0362,0.0,0,10.9219
1768568313.8428879,2.2191,12.0988,0.0,-8.2559,2.7732,0.0,0.0068,0.2658,-0.0,0.008,-0.0,-0.0321,0.0,0,10.6484
1768568313.9472837,2.3235,12.3914,0.0,-8.2552,2.799,0.0,0.0074,0.227,-0.0,0.0042,-0.0,-0.0283,0.0,0,10.3906
1768568314.0421429,2.4183,12.6526,0.0,-8.2545,2.8187,0.0,0.0077,0.1974,-0.0,0.0017,-0.0,-0.0253,0.0,0,10.1094
1768568314.1428034,2.519,12.9411,0.0,-8.2537,2.8374,-0.0,0.0077,0.1693,-0.0,-0.0001,-0.0,-0.0225,0.0,0,9.8438
1768568314.2486439,2.6248,13.2399,0.0,-8.2529,2.8538,-0.0,0.0077,0.1445,-0.0,-0.0014,-0.0,-0.0201,0.0,0,9.5547
1768568314.349042,2.7252,13.5317,0.0,-8.2521,2.8675,-0.0,0.0075,0.1239,-0.0,-0.0022,-0.0,-0.018,0.0,0,9.2812
1768568314.4438899,2.8201,13.7989,0.0,-8.2514,2.8782,-0.0,0.0072,0.1077,-0.0,-0.0026,-0.0,-0.0164,0.0,0,9.0
1768568314.5449061,2.9211,14.093,0.0,-8.2507,2.8884,-0.0,0.007,0.0923,-0.0,-0.0028,-0.0,-0.0149,0.0,0,8.7109
1768568314.645004,3.0212,14.3794,0.0,-8.25,2.8969,-0.0,0.0067,0.0795,-0.0,-0.0029,-0.0,-0.0136,0.0,0,8.4297
1768568314.7522693,3.1285,14.6927,0.0,-8.2493,2.9048,-0.0,0.0064,0.0675,0.0,-0.0029,0.0,-0.0125,0.0,0,8.1406
1768568314.84831,3.2245,14.9719,0.0,-8.2487,2.9108,-0.0,0.0061,0.0584,0.0,-0.0029,0.0,-0.0115,0.0,0,7.8555
1768568314.944867,3.3211,15.2516,0.0,-8.2481,2.916,-0.0,0.0058,0.0505,0.0,-0.0027,0.0,-0.0108,0.0,0,7.5703
1768568315.0477855,3.424,15.5493,0.0,-8.2476,2.9208,-0.0,0.0055,0.0433,0.0,-0.0026,0.0,-0.0101,0.0,0,7.2734
1768568315.1447973,3.521,15.8387,0.0,-8.247,2.9248,-0.0,0.0053,0.0373,0.0,-0.0024,0.0,-0.0095,0.0,0,6.9844
1768568315.2530224,3.6292,16.1548,0.0,-8.2465,2.9285,-0.0,0.005,0.0316,0.0,-0.0022,0.0,-0.0089,0.0,0,6.6797
1768568315.3479204,3.7241,16.4273,0.0,-8.246,2.9313,-0.0,0.0048,0.0275,0.0,-0.0021,0.0,-0.0085,0.0,0,6.4023
1768568315.4473267,3.8235,16.7264,0.0,-8.2455,2.9339,-0.0,0.0046,0.0236,0.0,-0.0019,0.0,-0.0081,0.0,0,6.1016
1768568315.5478382,3.924,17.017,0.0,-8.2451,2.936,-0.0,0.0045,0.0203,0.0,-0.0017,0.0,-0.0078,0.0,0,5.8125
1768568315.646945,4.0231,17.3077,0.0,-8.2446,2.9379,-0.0,0.0043,0.0175,0.0,-0.0016,0.0,-0.0075,0.0,0,5.5234
1768568315.7502375,4.1264,17.6163,0.0,-8.2442,2.9396,-0.0,0.0041,0.0149,0.0,-0.0014,0.0,-0.0072,0.0,0,5.2148
1768568315.849201,4.2254,17.9074,0.0,-8.2438,2.9409,-0.0,0.004,0.0128,-0.0,-0.0013,-0.0,-0.007,0.0,0,4.9297
1768568315.9500074,4.3262,18.1986,0.0,-8.2434,2.9421,-0.0,0.0039,0.011,-0.0,-0.0012,-0.0,-0.0069,0.0,0,4.6367
1768568316.0489442,4.4251,18.4899,0.0,-8.243,2.9431,-0.0,0.0038,0.0095,-0.0,-0.0011,-0.0,-0.0067,0.0,0,4.3477
1768568316.1545355,4.5307,18.799,0.0,-8.2426,2.9441,-0.0,0.0037,0.0081,-0.0,-0.001,-0.0,-0.0066,0.0,0,4.0391
1768568316.2692308,4.6454,19.1435,0.0,-8.2422,2.9449,-0.0,0.0036,0.0068,-0.0,-0.0009,-0.0,-0.0064,0.0,0,3.7559
1768568316.3674698,4.7437,19.4351,0.0,-8.2419,2.9456,-0.0,0.0035,0.0058,-0.0,-0.0008,-0.0,-0.0064,0.0,0,3.4121
1768568316.4690254,4.8452,19.7268,0.0,-8.2415,2.9461,-0.0,0.0034,0.005,-0.0,-0.0007,-0.0,-0.0063,0.0,0,3.1113
1768568316.572512,4.9487,20.0361,0.0,-8.2412,2.9466,-0.0,0.0033,0.0043,-0.0,-0.0006,-0.0,-0.0062,0.0,1,2.8203
1768568319.3320181,7.7082,21.6888,-0.4472,-8.3932,-0.5497,-0.2549,0.0041,-0.1437,0.3087,0.0535,0.032,-0.0108,0.711,1,1.001
1768568322.1490238,10.5252,21.2532,-0.5387,-8.4014,-0.0082,0.0076,0.0012,0.0126,0.0097,-0.0065,-0.0012,-0.001,1.5006,0,3.916
1768568322.2719703,10.6482,21.2566,-0.5378,-8.406,0.121,0.0079,-0.2036,2.3919,-0.0035,-3.8053,-0.1764,-0.0122,1.501,0,3.9023
1768568322.3938086,10.77,21.2916,-0.5368,-8.4538,0.4572,0.0075,-0.5195,2.8495,-0.0048,-1.2971,-0.2516,-0.0174,1.5015,0,3.625
1768568322.520655,10.8969,21.3713,-0.5359,-8.5243,0.8014,0.0069,-0.5662,2.5947,-0.0047,0.3094,-0.2663,-0.0184,1.5015,0,3.4824
1768568322.6426327,11.0188,21.4888,-0.5351,-8.5899,1.1033,0.0063,-0.4888,2.3175,-0.0043,0.8322,-0.2523,-0.0175,1.501,0,3.3086
1768568322.7698305,11.146,21.6455,-0.5343,-8.6445,1.3786,0.0058,-0.3779,2.0554,-0.004,0.8782,-0.2263,-0.0157,1.5004,0,3.0723
1768568322.8889616,11.2652,21.8251,-0.5337,-8.6838,1.6108,0.0053,-0.2792,1.8151,-0.0038,0.753,-0.1985,-0.0137,1.4999,1,2.7852
1768568326.520573,14.8968,22.4903,-0.5343,-8.6761,0.1295,0.0225,-0.1485,0.0,0.0,0.0,0.0164,-0.0012,2.0771,0,43.0625
1768568326.6553524,15.0315,22.4895,-0.5338,-8.677,0.0548,0.0176,0.0005,0.8646,-0.0351,-1.8151,-0.067,0.0409,2.0802,0,44.3438
1768568326.7774892,15.1537,22.4912,-0.5336,-8.6805,0.1187,0.0135,-0.1858,2.0613,-0.0213,-3.3777,-0.1374,0.0786,2.0777,0,45.625
1768568326.9066505,15.2828,22.496,-0.5332,-8.6893,0.2091,0.0111,-0.4013,2.7851,-0.0116,-2.846,-0.1904,0.1076,2.0751,0,45.5625
1768568327.0264845,15.4027,22.4982,-0.5331,-8.6941,0.1736,0.0106,-0.4645,0.0,0.0,0.0,-0.2113,0.1191,2.075,0,45.4062
1768568327.1495705,15.5258,22.5003,-0.533,-8.7001,0.1893,0.0104,-0.5468,0.0,0.0,0.0,-0.2279,0.1282,2.075,0,45.3125
1768568327.2745037,15.6507,22.5022,-0.5329,-8.7056,0.1903,0.0104,-0.6038,0.0,0.0,0.0,-0.2405,0.1353,2.0754,0,45.2812
1768568327.4020438,15.7782,22.5037,-0.5328,-8.7112,0.1722,0.0107,-0.6295,3.9082,0.0119,-3.5853,-0.2485,0.1398,2.0761,0,45.1875
1768568327.5272303,15.9034,22.5043,-0.5328,-8.7133,0.1605,0.0109,-0.6551,0.0,0.0,0.0,-0.2551,0.1436,2.0767,0,45.125
1768568327.6491466,16.0253,22.5057,-0.5327,-8.719,0.172,0.0112,-0.6987,4.2001,0.0168,-3.8137,-0.2615,0.1477,2.0775,0,45.0938
1768568327.7772672,16.1535,22.5061,-0.5327,-8.7201,0.1867,0.0115,-0.7394,0.0,0.0,0.0,-0.2663,0.1507,2.0784,0,45.0625
1768568327.8964179,16.2726,22.5067,-0.5326,-8.7227,0.1748,0.0116,-0.7543,0.0,0.0,0.0,-0.27,0.1533,2.0793,0,45.0
1768568328.0222135,16.3984,22.5072,-0.5326,-8.7248,0.1659,0.0118,-0.7654,0.0,0.0,0.0,-0.2729,0.1553,2.0804,0,44.9688
1768568328.1411507,16.5173,22.5078,-0.5326,-8.727,0.2042,0.0122,-0.8224,0.0,0.0,0.0,-0.276,0.1581,2.0818,0,44.9375
1768568328.2688346,16.645,22.5085,-0.5325,-8.7306,0.1824,0.0124,-0.816,4.5296,0.0178,-3.8926,-0.2779,0.1597,2.0834,0,44.875
1768568328.3930109,16.7692,22.5088,-0.5325,-8.7319,0.1752,0.0124,-0.8226,4.644,0.0193,-4.1378,-0.2796,0.1612,2.0847,0,44.8125
1768568328.5155654,16.8918,22.5085,-0.5325,-8.7307,0.1681,0.0122,-0.8298,0.0,0.0,0.0,-0.281,0.1625,2.0858,0,44.7812
1768568328.64142,17.0176,22.5089,-0.5325,-8.7318,0.2062,0.0124,-0.8799,0.0,0.0,0.0,-0.2823,0.1641,2.0873,0,44.7188
1768568328.7658226,17.142,22.51,-0.5324,-8.7376,0.191,0.0124,-0.8736,4.7234,0.0188,-4.1367,-0.2832,0.1651,2.0889,0,44.6875
1768568328.8978233,17.274,22.5091,-0.5325,-8.733,0.195,0.0119,-0.876,0.0,0.0,0.0,-0.284,0.1664,2.0905,0,44.625
1768568329.0174131,17.3936,22.5099,-0.5325,-8.7358,0.2297,0.0117,-0.9008,4.4435,0.0103,-3.2303,-0.2839,0.1676,2.0926,0,44.5625
1768568329.1426246,17.5188,22.5097,-0.5325,-8.7357,0.2096,0.0113,-0.8811,4.702,0.0141,-3.9769,-0.2839,0.1681,2.0944,0,44.5312
1768568329.27372,17.6499,22.5094,-0.5325,-8.7333,0.2943,0.0111,-0.9507,0.0,0.0,0.0,-0.2828,0.17,2.097,0,44.5
1768568329.3953197,17.7715,22.5092,-0.5325,-8.733,0.2132,0.0108,-0.8788,0.0,0.0,0.0,-0.2819,0.1701,2.0997,0,44.5312
1768568329.5178216,17.894,22.5099,-0.5325,-8.7358,0.2314,0.0103,-0.9001,4.5256,0.0011,-3.4781,-0.2818,0.1708,2.1021,0,44.5625
1768568329.646588,18.0228,22.5089,-0.5325,-8.733,0.1751,0.0099,-0.8489,0.0,0.0,0.0,-0.282,0.171,2.1037,0,44.2188
1768568329.7696216,18.1458,22.5089,-0.5325,-8.7331,0.2282,0.0096,-0.9118,0.0,0.0,0.0,-0.2825,0.1718,2.1051,0,44.1562
1768568329.8946202,18.2708,22.5091,-0.5325,-8.7357,0.1931,0.0097,-0.8824,4.8804,0.0142,-4.4592,-0.2825,0.1722,2.1069,0,44.0938
1768568330.0168517,18.393,22.5091,-0.5324,-8.7386,0.2237,0.0099,-0.9197,4.683,0.0129,-3.8577,-0.2827,0.173,2.1086,0,44.0625
1768568330.1414835,18.5177,22.5093,-0.5324,-8.7473,0.2916,0.0102,-0.9769,4.3542,0.0081,-2.8949,-0.2821,0.174,2.1111,0,44.0
1768568330.2649963,18.6412,22.5079,-0.5322,-8.762,0.2959,0.0104,-0.9668,0.0,0.0,0.0,-0.2804,0.1746,2.1144,0,43.9062
1768568330.3911595,18.7674,22.5083,-0.532,-8.7823,0.3159,0.0107,-0.9634,4.1552,-0.0003,-2.4253,-0.2781,0.1751,2.1187,0,43.8125
1768568330.5159826,18.8922,22.5077,-0.5318,-8.8024,0.318,0.0108,-0.9559,4.1213,-0.0025,-2.3709,-0.2763,0.1758,2.1228,0,43.6875
1768568330.638267,19.0145,22.5062,-0.5316,-8.8166,0.2974,0.0109,-0.9369,0.0,0.0,0.0,-0.2749,0.1764,2.1266,0,43.5625
1768568330.7663827,19.1426,22.5065,-0.5314,-8.8362,0.2937,0.0108,-0.9314,4.0925,-0.005,-2.3412,-0.2737,0.1773,2.1306,0,43.4375
1768568330.8903804,19.2666,22.5053,-0.5312,-8.8532,0.3158,0.0107,-0.9366,0.0,0.0,0.0,-0.2722,0.1782,2.1349,0,43.3125
1768568331.0185063,19.3947,22.5047,-0.5309,-8.8727,0.3106,0.0106,-0.9311,0.0,0.0,0.0,-0.2711,0.1792,2.139,0,43.1875
1768568331.138451,19.5146,22.5051,-0.5308,-8.8892,0.2961,0.0105,-0.9225,4.1321,-0.0084,-2.5063,-0.2705,0.1802,2.1427,0,43.0938
1768568331.2644506,19.6406,22.5046,-0.5306,-8.9028,0.273,0.0105,-0.9095,4.1323,-0.008,-2.5026,-0.2699,0.1812,2.1463,0,42.9688
1768568331.3922358,19.7684,22.5054,-0.5305,-8.9141,0.3306,0.01,-0.9388,3.809,-0.0141,-1.5464,-0.2686,0.1827,2.1506,0,42.875
1768568331.5198457,19.896,22.503,-0.5304,-8.9224,0.332,0.0098,-0.9296,0.0,0.0,0.0,-0.2672,0.1836,2.1552,0,42.75
1768568331.6391506,20.0153,22.5034,-0.5302,-8.9389,0.3178,0.0098,-0.9166,4.0038,-0.0143,-2.1813,-0.2659,0.1843,2.1596,0,42.6562
1768568331.7593882,20.1356,22.503,-0.53,-8.9552,0.2979,0.0098,-0.904,4.0019,-0.014,-2.1836,-0.265,0.1853,2.1637,0,42.5312
1768568331.8862214,20.2624,22.5037,-0.5299,-8.9691,0.3137,0.0096,-0.9075,3.9551,-0.0142,-2.0424,-0.2644,0.1863,2.1673,0,42.4062
1768568332.0041232,20.3803,22.5038,-0.5298,-8.9803,0.3276,0.0093,-0.9083,0.0,0.0,0.0,-0.2634,0.187,2.1705,0,42.3125
1768568332.1323104,20.5085,22.5051,-0.5296,-8.9968,0.2864,0.0095,-0.885,0.0,0.0,0.0,-0.2625,0.1876,2.1738,0,42.2188
1768568332.2552543,20.6315,22.5086,-0.5294,-9.013,0.3174,0.0093,-0.9069,3.9955,-0.0153,-2.1868,-0.262,0.1886,2.177,0,42.1562
1768568332.3795724,20.7558,22.5067,-0.5294,-9.0131,0.2861,0.0094,-0.8925,0.0,0.0,0.0,-0.2617,0.1895,2.1797,0,42.0625
1768568332.4995427,20.8757,22.5073,-0.5294,-9.0187,0.3052,0.0091,-0.9048,0.0,0.0,0.0,-0.2612,0.1906,2.1826,0,42.0
1768568332.6356547,21.0119,22.5085,-0.5293,-9.0298,0.3023,0.009,-0.903,0.0,0.0,0.0,-0.2607,0.1915,2.1858,0,41.9375
1768568332.758897,21.1351,22.5107,-0.5291,-9.0435,0.2913,0.009,-0.897,4.0658,-0.0202,-2.3744,-0.2601,0.1923,2.1888,0,41.8438
1768568332.895756,21.272,22.5109,-0.5291,-9.0489,0.2645,0.009,-0.8834,0.0,0.0,0.0,-0.2601,0.1933,2.1912,0,41.7812
1768568333.0203395,21.3965,22.5112,-0.5291,-9.0514,0.2415,0.0088,-0.8662,0.0,0.0,0.0,-0.2603,0.194,2.193,0,41.7188
1768568333.1439414,21.5201,22.5112,-0.5291,-9.0513,0.2239,0.0085,-0.8448,0.0,0.0,0.0,-0.2606,0.1944,2.1943,0,41.6875
1768568333.275901,21.6521,22.5114,-0.5291,-9.0514,0.2409,0.0081,-0.868,0.0,0.0,0.0,-0.2609,0.1951,2.1956,0,41.6562
1768568333.3967347,21.7729,22.5121,-0.529,-9.054,0.2361,0.0079,-0.8668,4.4534,-0.0125,-3.4143,-0.2611,0.1956,2.1969,0,41.625
1768568333.518214,21.8944,22.5115,-0.5291,-9.0514,0.2474,0.0077,-0.8831,0.0,0.0,0.0,-0.2612,0.1961,2.1981,0,41.5938
1768568333.6441984,22.0204,22.4996,-0.529,-9.054,0.1868,0.0082,-0.8815,0.0,0.0,0.0,-0.2612,0.1966,2.1996,0,41.5625
1768568333.7689703,22.1452,22.4996,-0.529,-9.054,0.1428,0.0094,-0.8797,0.0,0.0,0.0,-0.2622,0.1976,2.2012,0,41.5
1768568333.8945172,22.2707,22.4997,-0.529,-9.054,0.1258,0.0096,-0.8846,0.0,0.0,0.0,-0.2635,0.1991,2.2023,0,41.4688
1768568334.0170047,22.3932,22.4997,-0.529,-9.0541,0.1368,0.0097,-0.9085,0.0,0.0,0.0,-0.2647,0.2004,2.2035,0,41.4688
1768568334.1425009,22.5187,22.4996,-0.529,-9.0542,0.1633,0.0096,-0.9442,0.0,0.0,0.0,-0.2657,0.2017,2.2046,0,41.4375
1768568334.269006,22.6452,22.4996,-0.529,-9.0541,0.1265,0.0099,-0.9131,0.0,0.0,0.0,-0.2662,0.2025,2.2058,0,41.4062
1768568334.3934097,22.7696,22.4996,-0.529,-9.054,0.1118,0.0099,-0.8915,0.0,0.0,0.0,-0.2667,0.203,2.2068,0,41.375
1768568334.5220134,22.8982,22.5001,-0.529,-9.0572,0.1648,0.0098,-0.9701,4.6323,-0.004,-3.5049,-0.2671,0.2044,2.2082,0,41.3438
1768568334.6369634,23.0132,22.4996,-0.529,-9.0541,0.1054,0.0104,-0.9101,0.0,0.0,0.0,-0.2673,0.2048,2.2094,0,41.3125
1768568334.7638998,23.1401,22.4996,-0.529,-9.0542,0.137,0.0102,-0.9453,0.0,0.0,0.0,-0.2677,0.2057,2.2106,0,41.2812
1768568334.8927503,23.2689,22.4995,-0.529,-9.0542,0.1215,0.0102,-0.9384,0.0,0.0,0.0,-0.2679,0.2065,2.2118,0,41.25
1768568335.0189905,23.3952,22.4997,-0.529,-9.0543,0.1658,0.01,-0.9883,0.0,0.0,0.0,-0.2681,0.2073,2.2132,0,41.25
1768568335.1416397,23.5178,22.4994,-0.529,-9.0543,0.1365,0.0104,-0.9609,0.0,0.0,0.0,-0.268,0.2078,2.2147,0,41.2188
1768568335.2696373,23.6458,22.4995,-0.529,-9.0542,0.1085,0.0104,-0.9358,0.0,0.0,0.0,-0.268,0.2085,2.216,0,41.1562
1768568335.3906016,23.7668,22.4996,-0.529,-9.0543,0.1573,0.0102,-0.9925,0.0,0.0,0.0,-0.2679,0.2094,2.2176,0,41.1562
1768568335.5117974,23.888,22.4994,-0.5289,-9.0669,0.2074,0.0099,-1.0465,0.0,0.0,0.0,-0.2671,0.2105,2.2199,0,41.0938
1768568335.6372776,24.0135,22.4992,-0.5289,-9.0665,0.0989,0.0107,-0.9385,0.0,0.0,0.0,-0.2668,0.2106,2.2215,0,41.0625
1768568335.762069,24.1383,22.4991,-0.5289,-9.0665,0.1009,0.01,-0.9199,0.0,0.0,0.0,-0.267,0.2108,2.2225,0,41.0312
1768568335.883709,24.2599,22.4994,-0.5289,-9.0692,0.1027,0.0095,-0.9259,5.1915,-0.0055,-4.9203,-0.2671,0.2111,2.2234,0,41.0
1768568336.0051978,24.3814,22.4992,-0.5289,-9.0699,0.1797,0.0091,-1.0331,0.0,0.0,0.0,-0.2667,0.2122,2.2251,0,40.9688
1768568336.1334157,24.5096,22.4982,-0.5288,-9.0824,0.1534,0.0098,-1.0191,0.0,0.0,0.0,-0.2662,0.2129,2.2272,0,40.9375
1768568336.258622,24.6348,22.4981,-0.5288,-9.0823,0.1234,0.0098,-0.9854,0.0,0.0,0.0,-0.2662,0.2134,2.2286,0,40.9062
1768568336.3854792,24.7617,22.4982,-0.5288,-9.0824,0.1485,0.0093,-1.0134,0.0,0.0,0.0,-0.2663,0.2142,2.2301,0,40.875
1768568336.5062397,24.8824,22.4982,-0.5288,-9.0825,0.16,0.0092,-1.024,0.0,0.0,0.0,-0.2662,0.2148,2.2316,0,40.8438
1768568336.6330404,25.0092,22.498,-0.5288,-9.0823,0.1061,0.0093,-0.9682,0.0,0.0,0.0,-0.2661,0.2151,2.2329,0,40.8125
1768568336.7576177,25.1338,22.4982,-0.5288,-9.0824,0.153,0.0088,-1.0172,0.0,0.0,0.0,-0.2661,0.2159,2.2342,0,40.7812
1768568336.8865116,25.2627,22.4981,-0.5288,-9.0823,0.1161,0.0089,-0.9781,0.0,0.0,0.0,-0.2659,0.2162,2.2356,0,40.75
1768568337.0080237,25.3842,22.4983,-0.5288,-9.0852,0.1071,0.0088,-0.9725,5.024,-0.0119,-4.3424,-0.2657,0.2166,2.2369,0,40.7188
1768568337.128992,25.5052,22.4981,-0.5288,-9.0824,0.1421,0.0084,-1.0109,0.0,0.0,0.0,-0.2657,0.2171,2.238,0,40.6875
1768568337.2539496,25.6301,22.4983,-0.5288,-9.0852,0.1079,0.0089,-0.9803,4.9876,-0.0128,-4.2322,-0.2652,0.2175,2.2396,0,40.6562
1768568337.3788917,25.7551,22.4981,-0.5288,-9.0824,0.1257,0.0084,-0.9895,0.0,0.0,0.0,-0.2653,0.2179,2.2405,0,40.625
1768568337.5037763,25.88,22.4981,-0.5288,-9.0824,0.1384,0.0084,-1.0194,0.0,0.0,0.0,-0.2649,0.2185,2.242,0,40.625
1768568337.6252744,26.0015,22.498,-0.5288,-9.0823,0.0976,0.0086,-0.9589,0.0,0.0,0.0,-0.2648,0.2185,2.2431,0,40.5938
1768568337.7501326,26.1263,22.4981,-0.5288,-9.0824,0.1209,0.0084,-0.9952,0.0,0.0,0.0,-0.2647,0.2191,2.2442,0,40.5625
1768568337.8757591,26.252,22.4984,-0.5288,-9.0855,0.141,0.0082,-1.0244,4.8233,-0.0133,-3.7355,-0.2645,0.2197,2.2456,0,40.5312
1768568338.0004103,26.3766,22.498,-0.5288,-9.0823,0.1024,0.0085,-0.9811,0.0,0.0,0.0,-0.2642,0.22,2.2469,0,40.5
1768568338.1211293,26.4973,22.4979,-0.5288,-9.0823,0.0975,0.0084,-0.9719,0.0,0.0,0.0,-0.2641,0.2204,2.248,0,40.4688
1768568338.2449846,26.6212,22.498,-0.5288,-9.0824,0.112,0.0081,-1.0061,0.0,0.0,0.0,-0.2639,0.2213,2.2493,0,40.4688
1768568338.369637,26.7458,22.498,-0.5288,-9.0825,0.1435,0.008,-1.0285,0.0,0.0,0.0,-0.2636,0.2216,2.2508,0,40.4375
1768568338.4966705,26.8729,22.4979,-0.5288,-9.0825,0.1335,0.0081,-1.0294,0.0,0.0,0.0,-0.263,0.222,2.2527,0,40.4062
1768568338.617804,26.994,22.4979,-0.5288,-9.0823,0.1056,0.0082,-0.9825,0.0,0.0,0.0,-0.2628,0.2222,2.2539,0,40.375
1768568338.745752,27.1219,22.4978,-0.5288,-9.0824,0.1121,0.008,-0.9993,0.0,0.0,0.0,-0.2626,0.2226,2.2551,0,40.3438
1768568338.8702147,27.2464,22.4975,-0.5288,-9.0855,0.1241,0.008,-1.0189,0.0,0.0,0.0,-0.2621,0.2231,2.2569,0,40.3438
1768568338.9928575,27.3691,22.4959,-0.5287,-9.0885,0.0863,0.0085,-0.9798,0.0,0.0,0.0,-0.2616,0.2235,2.2585,0,40.3125
1768568339.1200366,27.4962,22.4959,-0.5287,-9.0884,0.0843,0.0081,-0.9512,0.0,0.0,0.0,-0.2616,0.2236,2.2595,0,40.2812
1768568339.2452633,27.6215,22.4959,-0.5287,-9.0885,0.1035,0.0077,-0.9831,0.0,0.0,0.0,-0.2614,0.224,2.2606,0,40.25
1768568339.3701415,27.7463,22.496,-0.5287,-9.0886,0.1325,0.0075,-1.0231,0.0,0.0,0.0,-0.2613,0.2244,2.2619,0,40.25
1768568339.49726,27.8735,22.496,-0.5287,-9.0886,0.1309,0.0077,-1.0311,0.0,0.0,0.0,-0.2609,0.2249,2.2634,0,40.2188
1768568339.6169553,27.9932,22.4959,-0.5287,-9.0885,0.095,0.0081,-0.9866,0.0,0.0,0.0,-0.2606,0.2252,2.2647,0,40.1875
1768568339.7417052,28.1179,22.4959,-0.5287,-9.0885,0.1142,0.0079,-0.9975,0.0,0.0,0.0,-0.2605,0.2256,2.2658,0,40.1875
1768568339.8684165,28.2446,22.4959,-0.5287,-9.0885,0.1049,0.0077,-0.9985,0.0,0.0,0.0,-0.2604,0.226,2.267,0,40.1875
1768568339.9911947,28.3674,22.4959,-0.5287,-9.0885,0.104,0.0077,-0.9818,0.0,0.0,0.0,-0.2602,0.2261,2.268,0,40.1562
1768568340.1137161,28.4899,22.4959,-0.5287,-9.0885,0.1107,0.0077,-1.0022,0.0,0.0,0.0,-0.26,0.2264,2.2692,0,40.1562
1768568340.2449052,28.6211,22.4959,-0.5287,-9.0885,0.1045,0.0077,-0.987,0.0,0.0,0.0,-0.2598,0.2266,2.2702,0,40.1562
1768568340.3661427,28.7423,22.496,-0.5287,-9.0886,0.1211,0.0076,-1.0358,0.0,0.0,0.0,-0.2594,0.2273,2.2716,0,40.125
1768568340.4923706,28.8686,22.496,-0.5287,-9.0887,0.1435,0.0078,-1.0628,0.0,0.0,0.0,-0.2588,0.2279,2.2736,0,40.125
1768568340.6128385,28.989,22.4959,-0.5287,-9.0885,0.0974,0.0083,-1.0019,0.0,0.0,0.0,-0.2586,0.2281,2.2749,0,40.125
1768568340.739379,29.1156,22.496,-0.5287,-9.0887,0.1355,0.0079,-1.0526,0.0,0.0,0.0,-0.2582,0.2293,2.2766,0,40.25
1768568340.8603184,29.2365,22.4958,-0.5287,-9.0885,0.0784,0.0082,-0.9717,0.0,0.0,0.0,-0.2579,0.2292,2.2778,0,40.25
1768568340.9827664,29.359,22.496,-0.5287,-9.0886,0.1169,0.0074,-1.0075,0.0,0.0,0.0,-0.2579,0.2296,2.2788,0,40.2188
1768568341.1077068,29.4839,22.4961,-0.5287,-9.0915,0.0973,0.0076,-1.0047,4.9031,-0.0213,-3.9074,-0.2572,0.2299,2.2805,0,40.2188
1768568341.2321384,29.6083,22.4959,-0.5287,-9.0886,0.1028,0.0075,-1.0105,0.0,0.0,0.0,-0.257,0.2304,2.2818,0,40.1875
1768568341.3567078,29.7329,22.496,-0.5287,-9.0913,0.0781,0.0075,-0.9599,5.2147,-0.0196,-4.7777,-0.2568,0.2304,2.2829,0,40.2188
1768568341.4838133,29.86,22.4963,-0.5287,-9.0915,0.124,0.0068,-1.004,5.2027,-0.018,-4.7399,-0.2567,0.2307,2.2839,0,40.1875
1768568341.6100826,29.9863,22.496,-0.5287,-9.0886,0.1225,0.0069,-1.0271,0.0,0.0,0.0,-0.2564,0.2311,2.2852,0,40.1875
1768568341.7310963,30.1073,22.4962,-0.5287,-9.0917,0.1104,0.0073,-1.0259,4.8845,-0.0196,-3.8544,-0.2558,0.2315,2.287,0,40.2812
1768568341.8548403,30.231,22.496,-0.5287,-9.0886,0.1183,0.0072,-1.0261,0.0,0.0,0.0,-0.2557,0.2319,2.2882,0,40.25
1768568341.9828694,30.3591,22.4959,-0.5287,-9.0886,0.1163,0.0071,-1.0099,0.0,0.0,0.0,-0.2556,0.2322,2.2892,0,40.25
1768568342.1056507,30.4818,22.4965,-0.5287,-9.0919,0.1517,0.007,-1.0632,4.7777,-0.0208,-3.554,-0.2549,0.2328,2.2911,0,40.25
1768568342.2288811,30.6051,22.4959,-0.5287,-9.0885,0.0976,0.0074,-0.9901,0.0,0.0,0.0,-0.2547,0.2329,2.2921,0,40.25
1768568342.3566658,30.7329,22.4959,-0.5287,-9.0886,0.098,0.0072,-1.0074,0.0,0.0,0.0,-0.2544,0.2334,2.2935,0,40.25
1768568342.481013,30.8572,22.4961,-0.5287,-9.0915,0.095,0.0074,-1.0056,4.9634,-0.0233,-4.0647,-0.254,0.2339,2.295,0,40.3125
1768568342.6056013,30.9818,22.4961,-0.5287,-9.0913,0.0885,0.0071,-0.9738,5.2587,-0.0211,-4.8904,-0.2539,0.234,2.296,0,40.3125
1768568342.7340643,31.1103,22.4962,-0.5287,-9.0915,0.104,0.0068,-1.0065,5.0359,-0.0216,-4.263,-0.2537,0.2344,2.2971,0,40.2812
1768568342.858942,31.2351,22.4961,-0.5287,-9.0888,0.1726,0.0063,-1.0827,0.0,0.0,0.0,-0.2533,0.2353,2.2987,0,40.3125
1768568342.98543,31.3616,22.4959,-0.5287,-9.0885,0.0977,0.0071,-0.9974,0.0,0.0,0.0,-0.2529,0.2352,2.3001,0,40.3438
1768568343.105908,31.4821,22.496,-0.5287,-9.0887,0.1286,0.0066,-1.0503,0.0,0.0,0.0,-0.2525,0.2359,2.3016,0,40.375
1768568343.2320535,31.6082,22.4963,-0.5287,-9.0917,0.1194,0.0068,-1.0303,4.909,-0.0242,-3.9049,-0.2522,0.2362,2.3033,0,40.375
1768568343.3540952,31.7303,22.4959,-0.5287,-9.0885,0.0852,0.007,-0.9822,0.0,0.0,0.0,-0.252,0.2365,2.3044,0,40.4062
1768568343.475545,31.8517,22.4963,-0.5287,-9.0917,0.1312,0.0062,-1.0328,4.8491,-0.0234,-3.7287,-0.2518,0.237,2.3056,0,40.375
1768568343.60042,31.9766,22.4958,-0.5287,-9.0884,0.0748,0.0067,-0.9672,0.0,0.0,0.0,-0.2515,0.2369,2.3067,0,40.4062
1768568343.7247562,32.101,22.4959,-0.5287,-9.0886,0.1051,0.0063,-1.01,0.0,0.0,0.0,-0.2513,0.2373,2.3079,0,40.4062
1768568343.84636,32.2226,22.4959,-0.5287,-9.0886,0.095,0.0066,-1.0051,0.0,0.0,0.0,-0.251,0.2376,2.3091,0,40.4375
1768568343.967959,32.3442,22.4959,-0.5287,-9.0886,0.0954,0.0068,-1.0065,0.0,0.0,0.0,-0.2507,0.238,2.3105,0,40.4375
1768568344.0985062,32.4747,22.4963,-0.5287,-9.0917,0.132,0.0065,-1.0284,5.105,-0.0204,-4.4435,-0.2506,0.2383,2.3117,0,40.4375
1768568344.2219882,32.5982,22.4966,-0.5287,-9.0921,0.1745,0.0059,-1.0944,4.3759,-0.0243,-2.4113,-0.2496,0.239,2.3137,0,40.4375
1768568344.3458686,32.7221,22.4965,-0.5287,-9.092,0.1598,0.0064,-1.0836,4.5282,-0.0275,-2.8545,-0.2485,0.2395,2.3165,0,40.4688
1768568344.466896,32.8431,22.496,-0.5287,-9.0887,0.1503,0.0066,-1.067,0.0,0.0,0.0,-0.2481,0.2404,2.3184,0,40.5312
1768568344.5900214,32.9662,22.4959,-0.5287,-9.0885,0.092,0.0068,-0.9876,0.0,0.0,0.0,-0.2479,0.2404,2.3197,0,40.5312
1768568344.712118,33.0883,22.4958,-0.5287,-9.0884,0.0789,0.0063,-0.9492,0.0,0.0,0.0,-0.2479,0.2404,2.3205,0,40.5
1768568344.8339245,33.2101,22.4959,-0.5287,-9.0885,0.1111,0.0057,-1.0013,0.0,0.0,0.0,-0.2477,0.2406,2.3215,0,40.5
1768568344.9551585,33.3314,22.4962,-0.5287,-9.0914,0.1005,0.0059,-0.9912,5.1405,-0.0229,-4.5645,-0.2475,0.2407,2.3226,0,40.5312
1768568345.0853271,33.4615,22.496,-0.5287,-9.0886,0.119,0.0058,-1.0129,0.0,0.0,0.0,-0.2474,0.241,2.3237,0,40.5625
1768568345.2077508,33.5839,22.4959,-0.5287,-9.0885,0.1008,0.0061,-0.9937,0.0,0.0,0.0,-0.2472,0.2412,2.3248,0,40.5938
1768568345.3291218,33.7053,22.4959,-0.5287,-9.0886,0.1153,0.006,-1.0163,0.0,0.0,0.0,-0.2469,0.2418,2.326,0,40.5938
1768568345.4544888,33.8307,22.496,-0.5287,-9.0886,0.1387,0.0059,-1.0173,0.0,0.0,0.0,-0.2464,0.242,2.3275,0,40.5938
1768568345.5795417,33.9557,22.496,-0.5287,-9.0886,0.1361,0.006,-1.0064,0.0,0.0,0.0,-0.2455,0.2422,2.3293,0,40.5938
1768568345.7061825,34.0824,22.4961,-0.5287,-9.0885,0.1538,0.0061,-1.0036,0.0,0.0,0.0,-0.245,0.242,2.3308,0,40.625
1768568345.8324752,34.2087,22.496,-0.5287,-9.0884,0.1179,0.0066,-0.9535,0.0,0.0,0.0,-0.2445,0.2418,2.3321,0,40.625
1768568345.9515522,34.3277,22.4969,-0.5287,-9.0945,0.1664,0.0063,-1.0085,5.0132,-0.0167,-4.2803,-0.244,0.2419,2.3334,0,40.6562
1768568346.0765383,34.4527,22.496,-0.5287,-9.0885,0.1453,0.0068,-0.9979,0.0,0.0,0.0,-0.2434,0.2419,2.335,0,40.6562
1768568346.2003071,34.5765,22.4959,-0.5287,-9.0884,0.1134,0.0073,-0.961,0.0,0.0,0.0,-0.243,0.242,2.3364,0,40.6562
1768568346.332007,34.7082,22.496,-0.5287,-9.0884,0.1211,0.0074,-0.9695,0.0,0.0,0.0,-0.2426,0.2423,2.3378,0,40.6562
1768568346.4556816,34.8319,22.496,-0.5287,-9.0884,0.118,0.0075,-0.9629,0.0,0.0,0.0,-0.2423,0.2423,2.339,0,40.6875
1768568346.5795324,34.9557,22.4963,-0.5287,-9.0913,0.1232,0.0076,-0.9723,5.0601,-0.0126,-4.4578,-0.2419,0.2425,2.3403,0,40.7188
1768568346.7002764,35.0765,22.496,-0.5287,-9.0884,0.1171,0.0078,-0.9672,0.0,0.0,0.0,-0.2416,0.2428,2.3416,0,40.7188
1768568346.820794,35.197,22.4964,-0.5287,-9.0914,0.1353,0.0078,-0.9867,5.0532,-0.0117,-4.4427,-0.2413,0.2431,2.3429,0,40.7188
1768568346.9463885,35.3226,22.496,-0.5287,-9.0885,0.1239,0.0079,-0.9796,0.0,0.0,0.0,-0.2409,0.2433,2.3441,0,40.75
1768568347.0706556,35.4469,22.496,-0.5287,-9.0885,0.1286,0.008,-0.978,0.0,0.0,0.0,-0.2407,0.2435,2.3453,0,40.7812
1768568347.195799,35.572,22.496,-0.5287,-9.0886,0.1502,0.0079,-1.0161,0.0,0.0,0.0,-0.2402,0.2441,2.3469,0,40.7812
1768568347.3209183,35.6971,22.4961,-0.5287,-9.0887,0.178,0.008,-1.0427,0.0,0.0,0.0,-0.2397,0.2447,2.3485,0,40.8125
1768568347.4441655,35.8204,22.4959,-0.5287,-9.0885,0.1146,0.0085,-0.9787,0.0,0.0,0.0,-0.2392,0.2448,2.3501,0,40.8125
1768568347.56958,35.9458,22.496,-0.5287,-9.0885,0.1355,0.0083,-1.0005,0.0,0.0,0.0,-0.2388,0.2453,2.3516,0,40.8438
1768568347.697638,36.0738,22.496,-0.5287,-9.0885,0.1221,0.0083,-0.9796,0.0,0.0,0.0,-0.2385,0.2456,2.353,0,40.875
1768568347.8220122,36.1982,22.4964,-0.5287,-9.0916,0.1465,0.0079,-1.0129,4.7151,-0.0184,-3.4914,-0.2379,0.2462,2.3548,0,40.9062
1768568347.945059,36.3213,22.4959,-0.5287,-9.0884,0.1143,0.0082,-0.9603,0.0,0.0,0.0,-0.2378,0.2461,2.3559,0,40.9062
1768568348.0766766,36.4529,22.4961,-0.5287,-9.0886,0.1537,0.0077,-1.0123,0.0,0.0,0.0,-0.2374,0.2468,2.3574,0,40.9062
1768568348.1990876,36.5753,22.4961,-0.5287,-9.0887,0.1811,0.0074,-1.0469,0.0,0.0,0.0,-0.2365,0.2473,2.3594,0,40.9375
1768568348.3278286,36.704,22.4961,-0.5287,-9.0887,0.1739,0.0076,-1.0382,0.0,0.0,0.0,-0.2357,0.2477,2.3618,0,40.9688
1768568348.4451108,36.8213,22.496,-0.5287,-9.0885,0.1318,0.008,-0.9885,0.0,0.0,0.0,-0.2354,0.2479,2.3633,0,40.9688
1768568348.575761,36.952,22.4961,-0.5287,-9.0886,0.1606,0.0074,-1.019,0.0,0.0,0.0,-0.2349,0.2486,2.3652,0,41.0
1768568348.693744,37.0699,22.4964,-0.5287,-9.0915,0.1382,0.0074,-0.9995,4.662,-0.0228,-3.3563,-0.2345,0.249,2.3669,0,41.0312
1768568348.8182046,37.1944,22.496,-0.5287,-9.0885,0.1224,0.0074,-0.9847,0.0,0.0,0.0,-0.2341,0.2494,2.3685,0,41.0625
1768568348.9471397,37.3233,22.496,-0.5287,-9.0885,0.1353,0.0072,-0.9853,0.0,0.0,0.0,-0.2339,0.2497,2.37,0,41.0625
1768568349.0708458,37.447,22.496,-0.5287,-9.0885,0.1349,0.007,-0.9958,0.0,0.0,0.0,-0.2334,0.2502,2.3716,0,41.0625
1768568349.192078,37.5683,22.496,-0.5287,-9.0884,0.1197,0.0071,-0.9628,0.0,0.0,0.0,-0.2333,0.2502,2.3729,0,41.0938
1768568349.3184054,37.6946,22.4964,-0.5287,-9.0914,0.1324,0.0069,-0.9876,4.8823,-0.0211,-3.9675,-0.233,0.2508,2.3744,0,41.125
1768568349.444138,37.8203,22.4971,-0.5287,-9.0946,0.1841,0.0067,-1.0214,4.9315,-0.0206,-4.0963,-0.2328,0.2514,2.3756,0,41.1562
1768568349.5684204,37.9446,22.496,-0.5287,-9.0885,0.119,0.007,-0.9806,0.0,0.0,0.0,-0.2324,0.2516,2.3769,0,41.1562
1768568349.6913319,38.0675,22.496,-0.5287,-9.0885,0.1383,0.0067,-0.9955,0.0,0.0,0.0,-0.2322,0.252,2.3782,0,41.1562
1768568349.819655,38.1959,22.4959,-0.5287,-9.0884,0.1072,0.0069,-0.9586,0.0,0.0,0.0,-0.232,0.252,2.3795,0,41.1562
1768568349.944412,38.3206,22.4963,-0.5287,-9.0914,0.1182,0.0068,-0.9773,5.047,-0.0191,-4.4161,-0.2317,0.2524,2.3808,0,41.1875
1768568350.0663075,38.4425,22.496,-0.5287,-9.0885,0.124,0.0068,-0.9789,0.0,0.0,0.0,-0.2316,0.2526,2.3819,0,41.2188
1768568350.2457988,38.622,22.4959,-0.5287,-9.0884,0.1042,0.0069,-0.9539,0.0,0.0,0.0,-0.2314,0.2527,2.3833,0,41.2188
1768568350.3374772,38.7137,22.4961,-0.5287,-9.0886,0.1576,0.0066,-1.0293,0.0,0.0,0.0,-0.2311,0.2533,2.3844,0,41.2188
1768568350.4387488,38.8149,22.496,-0.5287,-9.0885,0.1192,0.0073,-0.9878,0.0,0.0,0.0,-0.2308,0.2534,2.3855,0,41.25
1768568350.53596,38.9122,22.496,-0.5287,-9.0885,0.123,0.0071,-0.9838,0.0,0.0,0.0,-0.2308,0.2535,2.3863,0,41.25
1768568350.640916,39.0171,22.4962,-0.5287,-9.0914,0.115,0.0073,-0.9844,5.1351,-0.0137,-4.656,-0.2305,0.2538,2.3874,0,41.25
1768568350.7377985,39.114,22.4961,-0.5287,-9.0887,0.1723,0.007,-1.0528,0.0,0.0,0.0,-0.23,0.2545,2.3887,0,41.2812
1768568350.8376055,39.2138,22.4962,-0.5287,-9.0914,0.1048,0.0078,-0.9874,4.9617,-0.0184,-4.1666,-0.2296,0.2546,2.3901,0,41.3125
1768568350.9458537,39.3221,22.496,-0.5287,-9.0885,0.1221,0.0074,-0.9995,0.0,0.0,0.0,-0.2295,0.2551,2.3911,0,41.2812
1768568351.0475879,39.4238,22.4959,-0.5287,-9.0884,0.0949,0.0075,-0.9588,0.0,0.0,0.0,-0.2294,0.2552,2.3919,0,41.3125
1768568351.144946,39.5211,22.4959,-0.5287,-9.0883,0.085,0.0073,-0.9315,0.0,0.0,0.0,-0.2293,0.2552,2.3925,0,41.3125
1768568351.2539423,39.6301,22.4959,-0.5287,-9.0884,0.0925,0.007,-0.9404,0.0,0.0,0.0,-0.2293,0.2553,2.3933,0,41.3125
1768568351.348326,39.7245,22.4962,-0.5287,-9.0913,0.1026,0.0069,-0.9635,5.2255,-0.0123,-4.8935,-0.2291,0.2555,2.3941,0,41.3438
1768568351.4519992,39.8282,22.496,-0.5287,-9.0886,0.128,0.007,-1.019,0.0,0.0,0.0,-0.2287,0.2562,2.3952,0,41.3438
1768568351.5505085,39.9267,22.4959,-0.5287,-9.0885,0.0945,0.0074,-0.9778,0.0,0.0,0.0,-0.2286,0.2563,2.3961,0,41.375
1768568351.6622946,40.0385,22.4962,-0.5287,-9.0913,0.1064,0.0072,-0.9734,5.3388,-0.013,-5.2027,-0.2285,0.2564,2.397,0,41.375
1768568351.7569542,40.1332,22.4959,-0.5287,-9.0885,0.1079,0.0072,-0.9796,0.0,0.0,0.0,-0.2284,0.2565,2.3977,0,41.375
1768568351.8649492,40.2411,22.4961,-0.5287,-9.0886,0.1527,0.0069,-1.0309,0.0,0.0,0.0,-0.2282,0.2569,2.3986,0,41.375
1768568351.9649506,40.3411,22.4959,-0.5287,-9.0885,0.1016,0.0073,-0.9876,0.0,0.0,0.0,-0.228,0.2571,2.3995,0,41.375
1768568352.0667868,40.443,22.4962,-0.5287,-9.0914,0.1031,0.0074,-0.9828,5.3102,-0.0105,-5.1105,-0.2279,0.2572,2.4003,0,41.4062
1768568352.1649196,40.5411,22.4963,-0.5287,-9.0915,0.1234,0.0072,-1.0016,5.2463,-0.0089,-4.9291,-0.2278,0.2574,2.4011,0,41.4062
1768568352.2650495,40.6412,22.496,-0.5287,-9.0886,0.1284,0.0072,-1.0292,0.0,0.0,0.0,-0.2275,0.2578,2.402,0,41.4062
1768568352.367158,40.7434,22.4959,-0.5287,-9.0885,0.0989,0.0077,-0.9894,0.0,0.0,0.0,-0.2274,0.2579,2.4029,0,41.4375
1768568352.4674098,40.8436,22.4959,-0.5287,-9.0885,0.1079,0.0076,-1.0015,0.0,0.0,0.0,-0.2273,0.2583,2.4037,0,41.4688
1768568352.5665734,40.9428,22.496,-0.5287,-9.0886,0.1198,0.0076,-1.0318,0.0,0.0,0.0,-0.2268,0.2589,2.4049,0,41.4375
1768568352.668719,41.0449,22.4971,-0.5287,-9.0978,0.1533,0.0076,-1.0464,5.153,-0.0144,-4.6418,-0.2267,0.2592,2.406,0,41.4375
1768568352.7716258,41.1478,22.4977,-0.5287,-9.0957,0.2486,0.0066,-1.1371,4.2805,-0.0233,-2.1979,-0.2254,0.2601,2.408,0,41.4688
1768568352.8694692,41.2457,22.4959,-0.5287,-9.0885,0.095,0.0082,-1.003,0.0,0.0,0.0,-0.2248,0.2599,2.4093,0,41.5
1768568352.970025,41.3462,22.4959,-0.5287,-9.0885,0.0991,0.0077,-0.9781,0.0,0.0,0.0,-0.2249,0.26,2.41,0,41.5
1768568353.0704384,41.4466,22.4963,-0.5287,-9.0916,0.132,0.0069,-1.0215,5.0492,-0.0246,-4.3583,-0.2247,0.2606,2.411,0,41.5312
1768568353.1701918,41.5464,22.496,-0.5287,-9.0886,0.134,0.0066,-1.0373,0.0,0.0,0.0,-0.2244,0.261,2.4122,0,41.5312
1768568353.274034,41.6502,22.4968,-0.5287,-9.0948,0.1465,0.0065,-1.0433,4.9603,-0.0246,-4.1005,-0.2242,0.2613,2.4135,0,41.5312
1768568353.3743434,41.7505,22.496,-0.5287,-9.0886,0.1293,0.0063,-1.0311,0.0,0.0,0.0,-0.224,0.2617,2.4145,0,41.5312
1768568353.4737315,41.8499,22.4958,-0.5287,-9.0885,0.067,0.0069,-0.9916,0.0,0.0,0.0,-0.2236,0.2618,2.4157,0,41.5625
1768568353.5873623,41.9636,22.496,-0.5287,-9.0892,0.1168,0.0063,-1.0583,0.0,0.0,0.0,-0.2236,0.2627,2.4169,0,41.5625
1768568353.6936378,42.0698,22.4962,-0.5287,-9.0937,0.0727,0.0066,-1.0195,5.027,-0.0296,-4.2405,-0.2234,0.2633,2.4181,0,41.5938
1768568353.8007858,42.177,22.4961,-0.5287,-9.0915,0.0718,0.0061,-0.9853,0.0,0.0,0.0,-0.2235,0.2635,2.4188,0,41.5938
1768568353.8932886,42.2695,22.4963,-0.5287,-9.0956,0.0713,0.0058,-1.0044,5.1642,-0.0311,-4.5944,-0.2234,0.2642,2.4196,0,41.5938
1768568353.997007,42.3732,22.4962,-0.5287,-9.0933,0.0763,0.0053,-1.0037,0.0,0.0,0.0,-0.2234,0.2645,2.4203,0,41.5938
1768568354.0985866,42.4748,22.4963,-0.5287,-9.0941,0.0681,0.0052,-0.9835,0.0,0.0,0.0,-0.2233,0.2646,2.4211,0,41.625
1768568354.1944003,42.5706,22.4964,-0.5287,-9.0974,0.0591,0.0049,-0.9422,5.4444,-0.0282,-5.3664,-0.2232,0.2646,2.4215,0,41.625
1768568354.2941504,42.6703,22.4967,-0.5287,-9.0981,0.1047,0.0042,-1.0292,5.1749,-0.0288,-4.6105,-0.223,0.2649,2.4223,0,41.625
1768568354.3948069,42.771,22.4964,-0.5287,-9.0959,0.0749,0.0047,-1.0219,0.0,0.0,0.0,-0.2228,0.2652,2.4233,0,41.6562
1768568354.4946961,42.8709,22.4969,-0.5287,-9.1002,0.1103,0.0044,-1.0852,4.7507,-0.0293,-3.4094,-0.2225,0.266,2.4246,0,41.6562
1768568354.5975711,42.9738,22.4967,-0.5287,-9.1013,0.0661,0.005,-1.0268,5.0693,-0.0304,-4.2885,-0.2224,0.2662,2.4256,0,41.6875
1768568354.6975873,43.0738,22.4968,-0.5287,-9.1025,0.0626,0.0049,-0.9931,5.3921,-0.031,-5.1799,-0.2224,0.2665,2.4263,0,41.6562
1768568354.7979481,43.1741,22.4966,-0.5287,-9.1,0.0585,0.0045,-1.0049,0.0,0.0,0.0,-0.2223,0.2669,2.427,0,41.6562
1768568354.8970382,43.2732,22.4969,-0.5287,-9.1038,0.0749,0.0043,-1.0068,5.3178,-0.0299,-4.9619,-0.2222,0.2669,2.4277,0,41.6875
1768568355.0000656,43.3763,22.4968,-0.5287,-9.1018,0.0674,0.0043,-1.0241,0.0,0.0,0.0,-0.222,0.2673,2.4286,0,41.6875
1768568355.101606,43.4778,22.515,-0.5284,-9.1878,0.4002,0.0017,-1.2138,3.6411,-0.0393,-0.3407,-0.2193,0.2675,2.4303,0,41.6875
1768568355.2168617,43.5931,22.565,-0.5284,-9.2957,0.6039,0.0001,-0.9606,0.0,0.0,0.0,-0.2066,0.2551,2.4344,0,41.7188
1768568355.318205,43.6944,22.565,-0.5284,-9.2939,0.452,0.0075,-0.6838,5.1011,-0.0559,-5.5275,-0.2031,0.25,2.4366,0,41.7188
1768568355.4215064,43.7977,22.5666,-0.5282,-9.292,0.5255,0.0076,-0.7358,4.7936,-0.0474,-4.9657,-0.1981,0.2445,2.4393,0,41.6875
1768568355.5239077,43.9001,22.5672,-0.5281,-9.2873,0.5745,0.0089,-0.7529,4.3788,-0.0397,-4.0506,-0.1929,0.2387,2.4424,0,41.6875
1768568355.6194868,43.9957,22.5654,-0.528,-9.2786,0.5568,0.0113,-0.7159,0.0,0.0,0.0,-0.1892,0.2348,2.445,0,41.6875
1768568355.7191436,44.0953,22.5669,-0.5278,-9.2782,0.5286,0.013,-0.6825,4.4483,-0.0322,-4.7468,-0.1864,0.2319,2.4475,0,41.7188
1768568355.8237562,44.2,22.5664,-0.5278,-9.2763,0.5001,0.0139,-0.66,4.5975,-0.0275,-5.3845,-0.1845,0.23,2.4498,0,41.6875
1768568355.9285445,44.3047,22.5647,-0.5278,-9.2734,0.5127,0.0137,-0.6778,0.0,0.0,0.0,-0.183,0.2289,2.4519,0,41.7188
1768568356.0242407,44.4004,22.5662,-0.5278,-9.2749,0.513,0.0139,-0.6751,4.4287,-0.0218,-4.9995,-0.1818,0.2279,2.4539,0,41.75
1768568356.120653,44.4968,22.5646,-0.5278,-9.2724,0.5094,0.0141,-0.6741,0.0,0.0,0.0,-0.1809,0.2275,2.4556,0,41.75
1768568356.2229223,44.5991,22.5676,-0.5277,-9.2758,0.5339,0.014,-0.7001,4.3616,-0.0187,-4.8723,-0.18,0.2271,2.4577,0,41.75
1768568356.322885,44.6991,22.5675,-0.5277,-9.2753,0.5286,0.0143,-0.692,4.3942,-0.0175,-5.0301,-0.1791,0.2267,2.4597,0,41.75
1768568356.432977,44.8092,22.5647,-0.5277,-9.2715,0.5289,0.0145,-0.6936,0.0,0.0,0.0,-0.1783,0.2266,2.4617,0,41.7812
1768568356.5333703,44.9096,22.5663,-0.5277,-9.2733,0.5677,0.0143,-0.7315,4.1645,-0.0182,-4.3008,-0.1775,0.2268,2.4638,0,41.8125
1768568356.6315722,45.0078,22.5662,-0.5277,-9.2726,0.5553,0.0147,-0.7091,4.2447,-0.0188,-4.6227,-0.1764,0.2264,2.4659,0,41.7812
1768568356.736053,45.1122,22.566,-0.5277,-9.2721,0.5095,0.0153,-0.6704,4.3707,-0.017,-5.0761,-0.1759,0.2263,2.4678,0,41.8125
1768568356.8321753,45.2084,22.5659,-0.5277,-9.2721,0.5132,0.015,-0.6797,4.3344,-0.0183,-4.9312,-0.1756,0.2269,2.4695,0,41.8438
1768568356.9364297,45.3126,22.566,-0.5277,-9.2722,0.514,0.0148,-0.6812,4.3147,-0.018,-4.8646,-0.1752,0.2272,2.4714,0,41.875
1768568357.0360067,45.4122,22.5651,-0.5277,-9.2702,0.5613,0.0143,-0.7337,0.0,0.0,0.0,-0.1749,0.228,2.4733,0,41.8438
1768568357.1377192,45.5139,22.5663,-0.5276,-9.2719,0.5051,0.0149,-0.6749,4.4454,-0.0184,-5.3153,-0.1743,0.2278,2.4751,0,41.875
1768568357.2352638,45.6115,22.5648,-0.5277,-9.2699,0.4805,0.0146,-0.658,0.0,0.0,0.0,-0.1743,0.2283,2.4767,0,41.9062
1768568357.341304,45.7175,22.5648,-0.5277,-9.2701,0.4544,0.0144,-0.6349,0.0,0.0,0.0,-0.1742,0.2287,2.4782,0,41.9062
1768568357.4419863,45.8182,22.5661,-0.5276,-9.272,0.4156,0.0137,-0.5885,4.5813,-0.0118,-5.6911,-0.1747,0.2296,2.4794,0,41.9062
1768568357.539836,45.916,22.5653,-0.5277,-9.2711,0.4489,0.0129,-0.6358,0.0,0.0,0.0,-0.1751,0.2308,2.4806,0,41.9062
1768568357.6391065,46.0153,22.5652,-0.5277,-9.271,0.3844,0.0125,-0.5469,0.0,0.0,0.0,-0.1754,0.2312,2.4815,0,41.9375
1768568357.7471175,46.1233,22.5663,-0.5276,-9.2727,0.3202,0.0116,-0.4596,4.6131,-0.007,-5.6319,-0.176,0.2322,2.4823,0,41.9688
1768568357.8430603,46.2193,22.5664,-0.5276,-9.273,0.3188,0.0108,-0.4534,4.6096,-0.0071,-5.5374,-0.1767,0.2335,2.4829,0,41.9688
1768568357.9400458,46.3162,22.5654,-0.5277,-9.2715,0.2777,0.01,-0.3912,0.0,0.0,0.0,-0.1774,0.2345,2.4834,0,41.9688
1768568358.043572,46.4198,22.5655,-0.5277,-9.2716,0.2306,0.0087,-0.3191,0.0,0.0,0.0,-0.1779,0.2352,2.4838,0,42.0
1768568358.1429665,46.5192,22.5673,-0.5276,-9.2741,0.2486,0.008,-0.338,4.6785,-0.002,-5.5792,-0.1787,0.2363,2.4842,0,42.0
1768568358.248626,46.6248,22.5678,-0.5276,-9.2747,0.3422,0.0079,-0.459,4.7427,-0.0061,-5.6891,-0.1794,0.2381,2.4847,0,42.0
1768568358.3509605,46.7272,22.5681,-0.5276,-9.2752,0.3491,0.0091,-0.4868,4.7371,-0.0088,-5.646,-0.1793,0.2386,2.4855,0,42.0
1768568358.4474616,46.8237,22.5669,-0.5276,-9.2735,0.2837,0.0094,-0.3999,0.0,0.0,0.0,-0.1794,0.2387,2.4861,0,42.0
1768568358.550735,46.9269,22.5677,-0.5276,-9.2746,0.2679,0.0086,-0.3706,4.7596,-0.0039,-5.6932,-0.1796,0.2391,2.4866,0,42.0
1768568358.6467714,47.023,22.5689,-0.5276,-9.2762,0.4003,0.008,-0.5409,4.7773,-0.0115,-5.6936,-0.1796,0.2403,2.4874,0,42.0
1768568358.7534075,47.1296,22.5676,-0.5276,-9.2745,0.3399,0.0096,-0.4789,0.0,0.0,0.0,-0.1793,0.2401,2.4883,0,42.0312
1768568358.854666,47.2309,22.5675,-0.5276,-9.2743,0.3139,0.0094,-0.4441,0.0,0.0,0.0,-0.1793,0.2404,2.489,0,42.0312
1768568358.951087,47.3273,22.5675,-0.5276,-9.2744,0.3088,0.009,-0.4362,0.0,0.0,0.0,-0.1793,0.2408,2.4896,0,42.0312
1768568359.05547,47.4317,22.5673,-0.5276,-9.2741,0.2467,0.0088,-0.3528,0.0,0.0,0.0,-0.1792,0.2407,2.4902,0,42.0625
1768568359.1549263,47.5311,22.568,-0.5276,-9.275,0.2278,0.0078,-0.3202,4.7684,-0.0054,-5.6432,-0.1794,0.241,2.4906,0,42.0625
1768568359.2521677,47.6284,22.5678,-0.5276,-9.2747,0.2497,0.0077,-0.3516,0.0,0.0,0.0,-0.1798,0.2419,2.491,0,42.0625
1768568359.3541088,47.7303,22.5687,-0.5276,-9.276,0.2572,0.008,-0.3647,4.7932,-0.0085,-5.6463,-0.1799,0.2424,2.4916,0,42.0625
1768568359.4543993,47.8306,22.568,-0.5276,-9.2751,0.2552,0.0076,-0.3586,0.0,0.0,0.0,-0.18,0.2428,2.492,0,42.0625
1768568359.5553067,47.9315,22.568,-0.5276,-9.275,0.2262,0.0074,-0.32,0.0,0.0,0.0,-0.18,0.2429,2.4925,0,42.0625
1768568359.6560972,48.0323,22.5683,-0.5276,-9.2754,0.2609,0.0071,-0.3623,0.0,0.0,0.0,-0.1802,0.2435,2.4929,0,42.0312
1768568359.7573206,48.1335,22.5685,-0.5276,-9.2757,0.3152,0.0074,-0.434,0.0,0.0,0.0,-0.1801,0.2438,2.4935,0,42.0625
1768568359.8642313,48.2404,22.5684,-0.5276,-9.2756,0.2776,0.0085,-0.402,0.0,0.0,0.0,-0.1797,0.2438,2.4943,0,42.0625
1768568359.9643478,48.3405,22.569,-0.5276,-9.2765,0.2452,0.0084,-0.3547,4.8182,-0.0074,-5.6876,-0.1795,0.2435,2.4949,0,42.0625
1768568360.0643237,48.4405,22.5684,-0.5276,-9.2755,0.2541,0.0077,-0.3615,0.0,0.0,0.0,-0.1796,0.2441,2.4953,0,42.0938
1768568360.164908,48.5411,22.5684,-0.5276,-9.2756,0.2486,0.008,-0.3599,0.0,0.0,0.0,-0.1796,0.2444,2.4959,0,42.0938
1768568360.262717,48.6389,22.5692,-0.5276,-9.2767,0.2655,0.0073,-0.3684,4.8664,-0.0087,-5.798,-0.1796,0.2446,2.4964,0,42.0938
1768568360.3795984,48.7558,22.5693,-0.5276,-9.277,0.27,0.008,-0.389,4.816,-0.0103,-5.6366,-0.1793,0.2446,2.4971,0,42.125
1768568360.4741719,48.8504,22.5685,-0.5276,-9.2757,0.2389,0.0079,-0.345,0.0,0.0,0.0,-0.1792,0.2446,2.4976,0,42.125
1768568360.578861,48.9551,22.5687,-0.5276,-9.276,0.2864,0.0078,-0.4093,0.0,0.0,0.0,-0.1791,0.245,2.4982,0,42.125
1768568360.6772404,49.0534,22.5697,-0.5276,-9.2774,0.32,0.0082,-0.4583,4.8255,-0.0137,-5.6663,-0.1787,0.2451,2.499,0,42.125
1768568360.7762406,49.1524,22.5688,-0.5276,-9.2762,0.3332,0.0087,-0.4773,0.0,0.0,0.0,-0.1782,0.245,2.4998,0,42.0938
1768568360.8759875,49.2522,22.5693,-0.5276,-9.277,0.2568,0.009,-0.3829,4.8099,-0.0123,-5.6627,-0.1779,0.2446,2.5005,0,42.0938
1768568360.9794688,49.3557,22.5694,-0.5276,-9.277,0.268,0.0078,-0.3854,4.8174,-0.0123,-5.668,-0.178,0.245,2.501,0,42.0938
1768568361.0795205,49.4557,22.57,-0.5276,-9.2778,0.3742,0.0075,-0.5197,4.8405,-0.0163,-5.7313,-0.1777,0.2455,2.5018,0,42.125
1768568361.1811595,49.5574,22.5687,-0.5276,-9.2761,0.3001,0.0092,-0.4483,0.0,0.0,0.0,-0.1772,0.2451,2.5026,0,42.125
1768568361.2921782,49.6684,22.5697,-0.5276,-9.2775,0.3189,0.0087,-0.4656,4.8007,-0.0167,-5.6393,-0.1769,0.2452,2.5035,0,42.125
1768568361.3927562,49.769,22.5692,-0.5276,-9.2768,0.2345,0.0084,-0.3493,4.7845,-0.0127,-5.6103,-0.1767,0.2448,2.504,0,42.1562
1768568361.4923499,49.8685,22.5686,-0.5276,-9.2759,0.276,0.007,-0.3867,0.0,0.0,0.0,-0.177,0.2455,2.5044,0,42.1562
1768568361.5907004,49.9669,22.5686,-0.5276,-9.2758,0.2512,0.0076,-0.3658,0.0,0.0,0.0,-0.1769,0.2456,2.5049,0,42.1562
1768568361.695707,50.0719,22.5694,-0.5276,-9.2771,0.2818,0.0074,-0.4018,4.8199,-0.0121,-5.6727,-0.1769,0.2459,2.5055,0,42.1562
1768568361.7941294,50.1703,22.5687,-0.5276,-9.2761,0.308,0.0079,-0.4452,0.0,0.0,0.0,-0.1767,0.2462,2.5062,0,42.1562
1768568361.8934286,50.2696,22.5687,-0.5276,-9.2761,0.3032,0.0084,-0.4432,0.0,0.0,0.0,-0.1764,0.2461,2.5069,0,42.1562
1768568361.994907,50.3711,22.5698,-0.5276,-9.2776,0.3373,0.008,-0.4809,4.8213,-0.0143,-5.6883,-0.1762,0.2462,2.5077,0,42.1562
1768568362.096456,50.4727,22.5697,-0.5276,-9.2775,0.3263,0.0085,-0.4739,4.8361,-0.0155,-5.7476,-0.1758,0.2462,2.5084,0,42.1562
1768568362.193269,50.5695,22.5688,-0.5276,-9.2762,0.326,0.0086,-0.4767,0.0,0.0,0.0,-0.1755,0.2462,2.5092,0,42.1562
1768568362.293754,50.67,22.5696,-0.5276,-9.2774,0.3093,0.0088,-0.4597,4.8071,-0.0168,-5.6718,-0.1751,0.2461,2.51,0,42.1562
1768568362.3976715,50.7739,22.5692,-0.5276,-9.2769,0.2417,0.0085,-0.3643,4.7745,-0.0129,-5.5912,-0.175,0.2458,2.5105,0,42.1875
1768568362.4986386,50.8748,22.569,-0.5276,-9.2766,0.2145,0.007,-0.3133,4.8154,-0.0112,-5.7069,-0.1752,0.246,2.5109,0,42.1875
1768568362.5991523,50.9753,22.5686,-0.5276,-9.2759,0.2655,0.0066,-0.3763,0.0,0.0,0.0,-0.1754,0.2468,2.5113,0,42.1875
1768568362.698566,51.0748,22.5698,-0.5276,-9.2776,0.3449,0.0074,-0.4903,4.8183,-0.0146,-5.676,-0.1751,0.247,2.5121,0,42.1875
1768568362.8005717,51.1768,22.5687,-0.5276,-9.276,0.2912,0.0086,-0.4377,0.0,0.0,0.0,-0.1747,0.2468,2.5128,0,42.2188
1768568362.8992906,51.2755,22.5693,-0.5276,-9.2769,0.251,0.008,-0.3722,4.8064,-0.0114,-5.6707,-0.1746,0.2466,2.5134,0,42.2188
1768568363.0000415,51.3762,22.5685,-0.5276,-9.2757,0.2167,0.007,-0.3193,0.0,0.0,0.0,-0.1747,0.2467,2.5137,0,42.1875
1768568363.103752,51.4799,22.5693,-0.5276,-9.2769,0.2515,0.0068,-0.3635,4.8299,-0.0117,-5.6949,-0.175,0.2475,2.5142,0,42.1875
1768568363.209163,51.5854,22.5693,-0.5276,-9.2769,0.2523,0.0067,-0.3617,4.8529,-0.0112,-5.7532,-0.175,0.2478,2.5146,0,42.1875
1768568363.3024774,51.6787,22.5685,-0.5276,-9.2758,0.2278,0.0068,-0.333,0.0,0.0,0.0,-0.175,0.2478,2.515,0,42.1875
1768568363.4011,51.7773,22.5699,-0.5276,-9.2777,0.3022,0.0065,-0.4287,4.8458,-0.0138,-5.6894,-0.1751,0.2486,2.5155,0,42.1875
1768568363.500361,51.8766,22.5698,-0.5276,-9.2777,0.288,0.0078,-0.4259,4.8353,-0.0136,-5.6798,-0.1747,0.2484,2.5162,0,42.1875
1768568363.6113431,51.9875,22.5696,-0.5276,-9.2775,0.2616,0.0084,-0.4014,4.8219,-0.0152,-5.6455,-0.1743,0.2484,2.5169,0,42.2188
1768568363.7028265,52.079,22.5689,-0.5276,-9.2764,0.2712,0.0075,-0.3999,0.0,0.0,0.0,-0.1743,0.2485,2.5174,0,42.2188
1768568363.805831,52.182,22.5689,-0.5276,-9.2763,0.2648,0.0075,-0.3937,0.0,0.0,0.0,-0.1742,0.2487,2.518,0,42.2188
1768568363.9050205,52.2812,22.5689,-0.5276,-9.2763,0.2557,0.0074,-0.3831,0.0,0.0,0.0,-0.1741,0.2489,2.5184,0,42.2188
1768568364.0067372,52.3829,22.5697,-0.5276,-9.2776,0.2803,0.0074,-0.414,4.8453,-0.0156,-5.7025,-0.174,0.2491,2.5191,0,42.25
1768568364.1077576,52.484,22.5712,-0.5275,-9.2797,0.3604,0.0073,-0.5193,4.8394,-0.0193,-5.6834,-0.1736,0.2494,2.5199,0,42.25
1768568364.2117972,52.588,22.569,-0.5276,-9.2766,0.3111,0.0085,-0.4655,0.0,0.0,0.0,-0.1731,0.2489,2.5206,0,42.25
1768568364.312744,52.6889,22.5699,-0.5276,-9.2779,0.3124,0.0081,-0.4654,4.8174,-0.0174,-5.6604,-0.1728,0.2488,2.5213,0,42.25
1768568364.4121544,52.7884,22.569,-0.5276,-9.2765,0.284,0.0081,-0.4287,0.0,0.0,0.0,-0.1726,0.2487,2.522,0,42.25
1768568364.5117261,52.8879,22.5688,-0.5276,-9.2762,0.2377,0.0074,-0.3576,0.0,0.0,0.0,-0.1725,0.2486,2.5224,0,42.25
1768568364.6140192,52.9902,22.569,-0.5276,-9.2765,0.2995,0.0064,-0.4281,0.0,0.0,0.0,-0.1727,0.2493,2.5229,0,42.25
1768568364.7128143,53.089,22.5689,-0.5276,-9.2764,0.2595,0.0079,-0.3969,0.0,0.0,0.0,-0.1724,0.2491,2.5235,0,42.2188
1768568364.815547,53.1917,22.5689,-0.5276,-9.2764,0.274,0.0073,-0.4084,0.0,0.0,0.0,-0.1723,0.2493,2.5241,0,42.25
1768568364.9176226,53.2938,22.5697,-0.5276,-9.2776,0.2727,0.0075,-0.4122,4.8261,-0.0159,-5.6769,-0.1722,0.2494,2.5247,0,42.25
1768568365.0206552,53.3969,22.5689,-0.5276,-9.2764,0.2671,0.0073,-0.3996,0.0,0.0,0.0,-0.1721,0.2496,2.5252,0,42.25
1768568365.1180036,53.4942,22.5706,-0.5275,-9.2788,0.2878,0.007,-0.4199,4.8267,-0.0137,-5.6795,-0.1721,0.2497,2.5257,0,42.25
1768568365.219736,53.5959,22.5689,-0.5276,-9.2764,0.261,0.0077,-0.3991,0.0,0.0,0.0,-0.1719,0.2498,2.5263,0,42.2812
1768568365.3201995,53.6964,22.5689,-0.5276,-9.2764,0.271,0.0072,-0.4062,0.0,0.0,0.0,-0.1719,0.2501,2.5268,0,42.2812
1768568365.425021,53.8012,22.5696,-0.5276,-9.2774,0.2512,0.0076,-0.3874,4.8307,-0.0162,-5.6744,-0.1717,0.2502,2.5274,0,42.2812
1768568365.5287857,53.905,22.5688,-0.5276,-9.2762,0.2248,0.007,-0.3444,0.0,0.0,0.0,-0.1717,0.2503,2.5278,0,42.3125
1768568365.6221197,53.9983,22.5689,-0.5276,-9.2763,0.2457,0.0068,-0.3705,0.0,0.0,0.0,-0.1717,0.2507,2.5283,0,42.2812
1768568365.7277915,54.104,22.5688,-0.5276,-9.2762,0.2231,0.0066,-0.3368,0.0,0.0,0.0,-0.1717,0.2507,2.5287,0,42.2812
1768568365.8224494,54.1986,22.569,-0.5276,-9.2765,0.24,0.0065,-0.3612,0.0,0.0,0.0,-0.1718,0.2512,2.5291,0,42.2812
1768568365.9446836,54.3209,22.5695,-0.5276,-9.2773,0.2105,0.0063,-0.3179,4.8597,-0.0137,-5.721,-0.1718,0.2512,2.5296,0,42.2812
1768568366.0714853,54.4477,22.569,-0.5276,-9.2765,0.2265,0.0057,-0.331,0.0,0.0,0.0,-0.1719,0.2516,2.53,0,42.2812
1768568366.1970394,54.5732,22.5693,-0.5276,-9.2769,0.2831,0.0061,-0.4137,0.0,0.0,0.0,-0.1718,0.252,2.5306,0,42.2812
1768568366.3230681,54.6993,22.5693,-0.5276,-9.277,0.2876,0.0073,-0.4359,0.0,0.0,0.0,-0.1713,0.2519,2.5314,0,42.2812
1768568366.447373,54.8236,22.5691,-0.5276,-9.2767,0.2176,0.007,-0.336,0.0,0.0,0.0,-0.1711,0.2515,2.532,0,42.2812
1768568366.5697002,54.9459,22.5694,-0.5276,-9.2771,0.3134,0.0065,-0.4579,0.0,0.0,0.0,-0.171,0.2523,2.5326,0,42.2812
1768568366.6967242,55.0729,22.5719,-0.5275,-9.2809,0.312,0.0074,-0.4651,4.8473,-0.0174,-5.6806,-0.1706,0.2521,2.5334,0,42.3125
1768568366.822991,55.1992,22.5699,-0.5276,-9.278,0.251,0.0075,-0.3899,4.8275,-0.0166,-5.6377,-0.1703,0.2518,2.5341,0,42.3125
1768568366.94403,55.3202,22.5693,-0.5276,-9.2769,0.2659,0.0065,-0.4007,0.0,0.0,0.0,-0.1703,0.2524,2.5346,0,42.3125
1768568367.069862,55.4461,22.5692,-0.5276,-9.2768,0.2386,0.0073,-0.3741,0.0,0.0,0.0,-0.17,0.2521,2.5354,0,42.3438
1768568367.1964383,55.5726,22.5692,-0.5276,-9.2768,0.2554,0.0062,-0.3803,0.0,0.0,0.0,-0.1701,0.2525,2.5359,0,42.3438
1768568367.3207607,55.697,22.5693,-0.5276,-9.277,0.2823,0.0076,-0.4403,0.0,0.0,0.0,-0.1696,0.2525,2.5367,0,42.3438
1768568367.4430451,55.8192,22.5695,-0.5276,-9.2772,0.3325,0.007,-0.4933,0.0,0.0,0.0,-0.1693,0.2526,2.5375,0,42.3125
1768568367.5648825,55.9411,22.5693,-0.5276,-9.277,0.2673,0.0076,-0.4188,0.0,0.0,0.0,-0.169,0.2523,2.5382,0,42.3125
1768568367.6889484,56.0651,22.57,-0.5276,-9.2781,0.2667,0.0071,-0.4109,4.8468,-0.0191,-5.7088,-0.1688,0.2525,2.5389,0,42.3125
1768568367.8214643,56.1977,22.5695,-0.5276,-9.2772,0.3403,0.0069,-0.5094,0.0,0.0,0.0,-0.1685,0.2528,2.5397,0,42.3125
1768568367.9440792,56.3203,22.5693,-0.5276,-9.2769,0.2578,0.0075,-0.401,0.0,0.0,0.0,-0.1682,0.2522,2.5405,0,42.3438
1768568368.0659869,56.4422,22.5693,-0.5276,-9.2769,0.2687,0.0064,-0.4021,0.0,0.0,0.0,-0.1682,0.2526,2.541,0,42.3438
1768568368.1911576,56.5674,22.5693,-0.5276,-9.2769,0.2578,0.0069,-0.398,0.0,0.0,0.0,-0.1681,0.2527,2.5416,0,42.3438
1768568368.3202295,56.6964,22.5694,-0.5276,-9.2771,0.3122,0.0065,-0.4646,0.0,0.0,0.0,-0.1682,0.2536,2.5422,0,42.375
1768568368.4405162,56.8167,22.5693,-0.5276,-9.2769,0.2623,0.0072,-0.4119,0.0,0.0,0.0,-0.1679,0.2533,2.5429,0,42.375
1768568368.5615025,56.9377,22.5695,-0.5276,-9.2772,0.3359,0.0065,-0.4999,0.0,0.0,0.0,-0.1677,0.2536,2.5436,0,42.375
1768568368.6880748,57.0643,22.5696,-0.5276,-9.2774,0.3572,0.008,-0.5544,0.0,0.0,0.0,-0.1668,0.253,2.5448,0,42.375
1768568368.8114042,57.1876,22.5705,-0.5275,-9.279,0.3523,0.0089,-0.5599,4.7999,-0.0235,-5.6504,-0.1659,0.2523,2.546,0,42.3438
1768568368.9424314,57.3186,22.5691,-0.5276,-9.2766,0.2623,0.0079,-0.4216,0.0,0.0,0.0,-0.1656,0.2518,2.5468,0,42.3438
1768568369.0595248,57.4357,22.5691,-0.5276,-9.2766,0.2307,0.007,-0.3691,0.0,0.0,0.0,-0.1657,0.2521,2.5472,0,42.3438
1768568369.1843748,57.5606,22.5692,-0.5276,-9.2769,0.2558,0.006,-0.3868,0.0,0.0,0.0,-0.166,0.2527,2.5477,0,42.3438
1768568369.3199825,57.6962,22.5713,-0.5275,-9.2799,0.3306,0.006,-0.4857,4.8394,-0.0188,-5.72,-0.1662,0.2536,2.5483,0,42.375
1768568369.4561372,57.8323,22.5694,-0.5276,-9.2771,0.2978,0.007,-0.4583,0.0,0.0,0.0,-0.1659,0.2536,2.5491,0,42.375
1768568369.5702603,57.9465,22.5692,-0.5276,-9.2769,0.2383,0.0073,-0.3832,0.0,0.0,0.0,-0.1658,0.2536,2.5496,0,42.375
1768568369.6648343,58.041,22.5693,-0.5276,-9.2769,0.2657,0.0062,-0.4074,0.0,0.0,0.0,-0.1659,0.2542,2.55,0,42.4062
1768568369.7655835,58.1418,22.5692,-0.5276,-9.2769,0.2531,0.0066,-0.3979,0.0,0.0,0.0,-0.1659,0.2544,2.5505,0,42.4062
1768568369.8706608,58.2469,22.5703,-0.5276,-9.2784,0.3034,0.006,-0.4516,4.892,-0.0206,-5.8353,-0.166,0.2549,2.551,0,42.4062
1768568369.9747345,58.3509,22.5693,-0.5276,-9.277,0.264,0.0069,-0.4161,0.0,0.0,0.0,-0.1657,0.2547,2.5515,0,42.4062
1768568370.0927749,58.469,22.5693,-0.5276,-9.2769,0.2562,0.0058,-0.3847,0.0,0.0,0.0,-0.1658,0.255,2.5519,0,42.4062
1768568370.183745,58.5599,22.5691,-0.5276,-9.2767,0.2204,0.0058,-0.3413,0.0,0.0,0.0,-0.1658,0.255,2.5523,0,42.4062
1768568370.2856,58.6618,22.5701,-0.5276,-9.2782,0.2418,0.0061,-0.3793,4.8324,-0.0199,-5.6127,-0.1658,0.2556,2.5527,0,42.4062
1768568370.3852704,58.7615,22.57,-0.5276,-9.278,0.2271,0.0061,-0.3561,4.839,-0.0191,-5.6317,-0.1658,0.2557,2.553,0,42.4062
1768568370.4845715,58.8608,22.57,-0.5276,-9.2781,0.2175,0.0061,-0.3449,4.8334,-0.0191,-5.6031,-0.1658,0.2559,2.5534,0,42.375
1768568370.593636,58.9698,22.5695,-0.5276,-9.2773,0.2431,0.0056,-0.3735,0.0,0.0,0.0,-0.1659,0.2563,2.5538,0,42.375
1768568370.688622,59.0648,22.5704,-0.5276,-9.2786,0.2624,0.0061,-0.4082,4.8645,-0.0208,-5.6788,-0.1658,0.2564,2.5543,0,42.375
1768568370.7856505,59.1618,22.5701,-0.5276,-9.2784,0.2233,0.0064,-0.359,4.8272,-0.0194,-5.5747,-0.1656,0.2562,2.5547,0,42.4062
1768568370.8937402,59.2699,22.5704,-0.5276,-9.2785,0.2633,0.0052,-0.3905,4.8831,-0.0189,-5.7414,-0.1657,0.2566,2.555,0,42.4062
1768568370.9963257,59.3725,22.5707,-0.5276,-9.279,0.2921,0.0062,-0.4512,4.8871,-0.0222,-5.7453,-0.1654,0.2568,2.5556,0,42.4062
1768568371.090765,59.467,22.5699,-0.5276,-9.2778,0.3007,0.0067,-0.4703,0.0,0.0,0.0,-0.165,0.2566,2.5562,0,42.4062
1768568371.1991813,59.5754,22.5698,-0.5276,-9.2777,0.2811,0.0064,-0.4372,0.0,0.0,0.0,-0.1648,0.2565,2.5567,0,42.4062
1768568371.2957819,59.672,22.5697,-0.5276,-9.2776,0.2568,0.0069,-0.4152,0.0,0.0,0.0,-0.1645,0.2563,2.5573,0,42.4375
1768568371.3940463,59.7702,22.5696,-0.5276,-9.2775,0.2224,0.006,-0.3529,0.0,0.0,0.0,-0.1645,0.2562,2.5577,0,42.4375
1768568371.5040188,59.8802,22.5697,-0.5276,-9.2775,0.2426,0.0057,-0.3794,0.0,0.0,0.0,-0.1645,0.2566,2.5581,0,42.4375
1768568371.6032686,59.9795,22.5717,-0.5275,-9.2805,0.319,0.0056,-0.474,4.8983,-0.023,-5.7827,-0.1647,0.2574,2.5585,0,42.4375
1768568371.7251375,60.1013,22.5706,-0.5276,-9.279,0.2852,0.0065,-0.4497,4.8548,-0.0238,-5.6527,-0.1643,0.2572,2.5592,0,42.4375
